venueID,venueCatShort,venueLat,venueLon,venueName
4c4acc79959220a1545ca10e,Beach,38.602542770373006,20.549379587173462,Porto Katsiki (Πόρτο Κατσίκι)
4e577c12b61c5534c2816275,Beach,38.63761815986083,20.558513065185462,Egkremnoi (Εγκρεμνοί)
51ff78d2498e0ffef4243003,Boat / Ferry,38.600670142784885,20.548945996392526,"Κρουαζιερα Ιονιο (εγκρεμνοι, Κεφαλονια, Ιθακι, Σκορπιος, Σπηλια Παπανικολη)"
50e94c69e4b03e44479f3820,Boat / Ferry,38.53167496219382,20.591003342482,Ancona-Patra Route
4e11e2c21838f8ad815f3b5d,Beach,38.60567359034405,20.61259458393475,Agiofylli (Αγιοφύλλι)
50284b17e4b0f46ccf21d6f7,Sandwiches,38.62745,20.608805,Fresh
5028c3a5e4b07a366cffe728,Snacks,38.60236603974984,20.54995856518435,Snack Canteen
53397d02498eb0bba23e2ef9,Church,38.60237590530972,20.557279350631447,Áyios Nikólaos Nirás
57af7e76498e7d138a579aa4,Food Stand,38.627213,20.607418,Pop Corn (Καλαμπόκι)
57b4aa9ccd1053db86c21198,ATM,38.62696,20.607841,Alpha Bank (ATM)
4e3e5df6fa76455375c48b8f,Town,38.631315197904925,20.60711208913648,Vassiliki (Βασιλική)
520685d611d22b8ee3b414cf,Chinese,38.627254486083984,20.608121871948242,Theo's Chinese Restaurant
55a616ff498e6a6c38aba31d,Winery,38.648852,20.56197,Lefkas Earth Winery
502ca9e2e4b06ef10c8240b2,Medical,38.630143,20.607922,Κεντρο Υγειας Βασιλικης
520a067011d2898621732501,City Hall,38.62951724091629,20.60697241689543,Town Hall / Δημαρχείο
500bd6c1e4b042b40695659c,Greek,38.628392831690924,20.56230150909931,Taverna Oasis
5b735f313af988002c1ae0da,Gift Shop,38.62732,20.608704,Φιλυρα
4e53f160d4c05e0079f8c987,Restaurant,38.64902278195451,20.564105534840394,"Εστιατοριο ""Το Ιονιο"", Λευκαδα (Leukas)"
52076be911d20aea4b2cd6b9,Apparel,38.627633,20.608825,Lala's Shop
50081dd6e4b0117eced6ef38,Bar,38.631703,20.598885,Hotel Porto Fico Pool Bar
559bc82c498e666d3fbd0b7e,Residential,38.627933502197266,20.608125686645508,Liotrivi Studios
5031263ce4b0b49bb62784da,Housing Development,38.63222235725562,20.599360306861225,Vassiliki Star Studios
578d4e7f498e37a8381a7a24,Residential,38.633995,20.614675,Villa Armonia
50284b7fe4b0d0acd35d5b94,Nightclub,38.62785529563215,20.608916190522372,Kardu
55c51439498e2d86e01878be,Beach,38.63080988212718,20.602107178339775,Vasiliki Beach
55c3bedf498e1fc7ae13ebab,Ice Cream,38.62657312000394,20.60607036743597,Mellow Ice Cream
57716c52498ef2e965454ff5,Desserts,38.626743,20.608274,So Sweet
50241b87e4b01c38f882d50f,Souvlaki,38.625955,20.606797,Dimitris Souvlaki
4e4f810ad4c0b6da5d7ea6e1,Beach,38.60265542706522,20.626290805386308,Ammousa Beach (Αμμούσα)
4e61021a1495676d551b5b91,Hotel,38.63723924670727,20.5970657440545,Aegli Apartments & Studios
502a2c5ee4b0075a194de137,Piers,38.62668471660623,20.60816545119662,Port of Vasiliki (Λιμάνι Βασιλικής)
5030ed19e4b0f8a00175895f,Fish Tavernas,38.62692468530178,20.607741824028423,Alexander
4e42cf0fe4cd1d8eb0e851d7,Fish Tavernas,38.62599935902393,20.607262494331536,Dolphin
55c75fd8498ebb44938b2cbf,Seafood,38.63229740104382,20.59514107928771,Pondi
51cfe160498ece3101c6fc76,Financial / Legal,38.629197,20.608462,Μπραντζουκακης Νικολαος
5751e103498e2f53803abc83,Cafeteria,38.631555685120034,20.599043369293213,THE BAR
5b73601416ef67002cbd92a8,Souvenir Shop,38.626995,20.608429,Rena Shop
57c1f1c1498e382e537178c1,Pizza,38.62633,20.607961,pizza pizza
55e8147d498e9731889091b9,Residential,38.62877130622075,20.608404058213242,Mαкισ
502d60dbe4b06ef10cdcfe56,Hotel Bar,38.623360796318664,20.607950122958062,Apollo hotel
57e56a9f498e40509be583b7,Burgers,38.626327,20.607877,Fat boys*Burger&Beer Bar
55eb04da498ea54db1abb10f,Building,38.627567291259766,20.60745620727539,Vila Makis
5023af2ae4b01094647ed054,Greek,38.630997,20.602355,Sunwaves Restaurant
5213a88911d2576d0c3c4876,Chocolate Shop,38.62899683849281,20.609055863011957,"Ζαχαροπλαστείο ""Ζαμπέλης"""
55d6f94a498e99517c8510b4,Lawyer,38.628734,20.60949,ΣΥΜΒΟΛΑΙΟΓΡΑΦΕΙΟ Ν. & Μ. ΜΑΪΔΑ
57935ceb498e7662341fe4ab,Buffet,38.6325,20.594969,toKyma Restaurant
55c268aa498e2479ca4ca404,Pizza,38.626429,20.608182,alex's
502e7c12e4b0b5040ef69b54,Convenience Store,38.632465015531984,20.59610131583903,Mini Market Μαυροκεφαλος
51d84667498e3a08ae4a0e46,BBQ,38.63159255918672,20.594012074981425,Κάτι Ψήνεται
59a1d71135d3fc19e5b8e587,Gift Shop,38.627472,20.608824,Sirocco
51eae944498eef89993987a6,Convenience Store,38.626825,20.608331,"Super Mini Market (""ΑΡΓΥΡΟΥ"")"
520befc711d2a0cf0d4c9554,Pharmacy,38.626926943292915,20.608450615685975,Φαρμακείο
57af754e498eb17ed0762c04,ATM,38.627009535684806,20.60850881252968,Τράπεζα Πειραιώς (ΑΤΜ)
55ce31a3498ee6d37fe653a0,Salon / Barbershop,38.627259,20.608676,Hair Style - Sofia
53efcda3498eddd220fbfe67,High School,38.627358,20.607581,Γυμνάσιο & Λύκειο Βασιλικής
4c695a598e7c0f47b655df0f,Boat / Ferry,38.626418,20.60645,Jentl
50227713e4b007e7799bcb7a,Pool,38.630893,20.602712,Sunwaves Swimming Pool
53ee66d1498ebbbeb83d1f28,Butcher,38.628362,20.608551,ΚΡΕΟΠΩΛΕΙΟ - Αφοι Πατρίκιου
57a771a3498eb1d87f42408e,Grocery Store,38.62831,20.60911,Οπωροπαντοπωλείο
57259949498eb236f9db9f43,Travel,38.600443,20.634084,amarandos villas
53c55fb1498e449dc2438747,B & B,38.627681732177734,20.610214233398438,Geroulis Stefanos
50006e8ee4b077654e2a9af7,Hotel,38.62466614558889,20.607368154958163,Pension Holidays
51e81924498ef8d8068cfbdd,B & B,38.632444,20.593618,Stefani Studios & Apartments
4c6d8c164d24b60c472fd6d8,Surf Spot,38.63180512052833,20.598883096847977,Human-Sports
5007ec43e4b0495231135376,Stables,38.630948560096535,20.60068136494546,Nikos Horse Riding
55cc7071498ea0ba3877ca3e,Hotel,38.623558008713005,20.607816270290623,Dimitris Studios
599359e09be52204b1a81f02,Shop,38.62717,20.608667,Αγορά Βασιλικής
598b75050a464d2c76594a38,Pizza,38.62663,20.608227,Pizza Top
532f0f28498ed89ceb8c6b13,Lighthouse,38.56370057144108,20.542393420107036,Cavo Ducato
52187aa711d29a1c1daa6222,Boat / Ferry,38.62481170503909,20.606279875631003,ionion pelagos (Ιόνιον Πέλαγος)
51024d717ab4bd60bbf9fcf6,B & B,38.62565513574242,20.608270168304443,Vasiliki Blue
4e169fe08877d38dc907f335,Lighthouse,38.563597117153826,20.54259126609587,Doukato Lighthouse
4e4d5ecf18388d498174a487,Bar,38.62641418369405,20.6080144044736,Zeus Bar
502ca3e7e4b0543f97d386c5,Beach Bar,38.62860466450571,20.607078660306414,Volero Beach Bar
5217cc8f11d2b779133dfab8,B & B,38.62492370605469,20.60735321044922,Kostas Studios
55cb3724498ef794e83de8db,Souvlaki,38.62669880300762,20.608142172466085,Mega Gyros
4df4ebe462e1288ed308e769,Greek,38.656437,20.565889,Greco Levante
53e4b861498e2ba00dca02a9,Greek,38.63176345825195,20.594026565551758,Maistros Taverna
4e135b95b0fbfef99ba2b82f,Greek,38.62575780919746,20.606573727383775,Miramare
5b796c18bb8d36002d401e9e,Greek,38.632165,20.594801,The Wave
577cf412498e3b28c74482e5,Greek,38.62694,20.607681,Zotos
5956826f4420d86b1892020f,Tavernas,38.631681,20.593816,Amalthea Tavern
501e8834e4b0ccb681c6a6f0,Souvlaki,38.62651423254125,20.608198100707753,Ο Γιάννης
5b65f38e872f7d002c193a39,Restaurant,38.602634,20.625984,Ammousso Beach Restaurant
4e40309452b1a04aff3b153a,Tavernas,38.62640918830426,20.608142172466085,Giannis taverna
4df48e4318a88611c6c082b3,Cocktail,38.62637006916554,20.607993674122635,Yacht
505469f5e4b055f81b82cb99,Greek,38.6267431936252,20.60809561500649,Penguins
50168b1de4b0c79e492be35d,Café,38.602367917069195,20.55021461722,Καφε στο Porto
505336d9e4b0a9a6e60712b4,Other Outdoors,38.640472082535474,20.596520328420016,Πόντη
53a99692498efe4dabcb6d85,Beach Bar,38.602787017822266,20.626373291015625,Akrogiali Skliros Dionisis
4fa7da07e4b063f123d9487f,Residential,38.631053,20.602375,Sunwaves
4ff2babbe4b04071c05e854e,Beach,38.632180330793894,20.595478616887142,Ponti Beach (Παραλία Πόντι)
4e51599452b1e893ad75ce3e,Cocktail,38.627434678080256,20.608924857694234,155 Cocktail Bar
51ec1e53498ebec67c9e3c82,Greek,38.63229205590434,20.5950421458734,"ΕΣΤΙΑΤΟΡΙΟ - CAFE ""ΤΟ ΚΥΜΑ"""
52066fb0498ef7bcc9a17cc4,Bakery,38.62992951360112,20.608083975641907,Γλυκοτεχνείο
55a423f9498ebf3dc6808384,Restaurant,38.6296006981957,20.605406925083987,Aeriko
55b338d7498ebf908a29f054,Ice Cream,38.62317638979146,20.607862827738305,Ben & Jerry's
4e5a857d7d8b966a15d7704c,Greek,38.632568211106886,20.59607803736707,Μπατζανάκιας
4e14b8bb18388432510a4f43,Greek,38.65479853897186,20.56529852131259,Avra
5b6c2bd6270ee7003977afb0,Café,38.611122,20.55536,Cafe Panorama
57813299498eb82e0c5ecdf5,Residential,38.634377,20.595633,"Hotel ""Katerina"", Λευκάδα"
559ce13d498efe6f91a9b818,Residential,38.632302,20.594521,Villa Altina
53be3727498edde48370d2a5,Residential,38.63219144959468,20.600111040112452,calypso studio's
4e1a0c79c65b6bfb591e6091,Bar,38.63268471396151,20.59739327181909,Cave Paradise
4e47d488b61c03d0cd1e3122,Beach Bar,38.637591362518855,20.558210455819886,Beach Bar
596b7b708ad62e41be09698c,Residential,38.623882,20.608146,Nickos Apartments
4db1eff1a86e63d211773447,Bar,38.627913136629026,20.608927829895823,Tunnel
53554513498e464311c71741,Housing Development,38.614374,20.571309,ourania villas leukada
55a1f97b498e3ac245c95183,Residential,38.628016,20.60877,grandtheoni
55ae0b07498e31c6e9916176,Bakery,38.627586364746094,20.608678817749023,Σταχυ Και Μελι
4e456dc852b1bac0d96859aa,Greek,38.63060023138074,20.607540607452393,Mythos
57bec0f8498e904482bad6f1,Greek,38.63369,20.594791,En Lefko
53f6a834498e8588573a0c25,Bakery,38.62645421583967,20.60835168105879,Ο Φούρνος του Χωριού (Bakery)
599749c712138410b73dbb94,Souvlaki,38.62649,20.60853,Solo Souvlaki
55cba304498ea3043930866b,Ice Cream,38.625775,20.606941,Dolce Cafe
51f504eb498ed1d5f997bad9,Seafood,38.62700657027634,20.60771151604059,Ocean's Restaurant
5b47357281a0ea002d06c334,Seafood,38.62693,20.607733,Alexander Sea Food_vasiliki
4df363a552b100c2d7fa555b,Café,38.60358303484015,20.553618951445173,Bilvi
57b5baed498ed6d714cf402c,Scenic Lookout,38.56263,20.543247,ΑΚΡΩΤΗΡΙ ΛΕΥΚΑΤΑΣ (VAS)
59ad50ecb2958f5516c3026b,Lighthouse,38.563573,20.542692,Faros Doukatos Lefkada
5218683911d2763155842b3a,Boat / Ferry,38.6261212906171,20.60753110596687,"Agiofili Boat (""ΔΗΜΗΤΡΑ"")"
53e8dd9c498ec50c7ffad91b,Village,38.59252258395677,20.559239387512207,Agios Nikolaos Niras (Άγιος Νικόλαος Νηράς)
4e09bdd7fa767637fd397957,Greek,38.625952226421795,20.607140902282122,Βαγγελάρας
50d49f41e4b0736968c8bd33,Boat / Ferry,38.548780400792744,20.625345288824814,Somewhere In Mediteranian Sea
5022b370e4b0821d76490998,Souvlaki,38.629354,20.608459,Porto Tzatziki
57e76c1f498e32fd7ddb6cc0,Beach,38.623277,20.607397,Apollo beach
4e3d0d2cd4c058f9dbffc805,Greek,38.632293066258214,20.595087650736584,Taverna Almi
52147df211d213abe2b30370,Campground,38.63102100795903,20.60656280129649,Camping Vassiliki Beach
53e4d8f2498e8e5971ff61a4,Pool,38.623119403199624,20.60778717188683,Hotel Apollo pool bar
4c6bc5ee0c3ac9b644a5d238,Surf Spot,38.630538,20.602061,Active SurfSchool
4db43411fa8c350240df7178,Café,38.62646019160404,20.608061439177725,Vass
5206abdc498e3dcfba6b4959,Vacation Rental,38.62944742700068,20.602200292749036,Aiolos studios Vassiliki bay
51e25910498e270b2a9e6e64,Café,38.62636,20.607843,Deja Vu
504d96bbe4b0a294bb1f4c68,Pool,38.63284830474898,20.596072217749164,Anemolia Apartman
502a0c7ae4b0f8083edbb095,Grocery Store,38.631595,20.614982,Super Market (Πολίτης)
57b0a4c7498e4b8b7786bad8,Boarding,38.598816,20.6171,Villa Kastri
51e635fa498ee34d3f12b01e,Boat / Ferry,38.626004127820984,20.60644282647719,Nidri Star II
520d0cfd11d275f35e339c65,Grocery Store,38.63130796784672,20.606896761105656,Euro Market (ΠΟΛΙΤΗΣ)
5978542f065ef5628a445e85,Hotel,38.633173,20.597204,Artsailing
59b533dd791871507c64eacf,Hotel,38.63127,20.607075,Imperial Studios
53e7d737498ed822e095617e,Hotel,38.634556,20.594228,Hera's Garden
4e54a8eab61c93816c0b8a7b,Hotel,38.63256772814418,20.601088740009818,"Hotel ""Odyssion"", Λευκαδα (Leukas)"
4fe2070be4b0cc64d758fb09,B & B,38.634900196907516,20.595344765757492,Hotel Katerina
55c48614498eba36fc7b6e48,Café,38.63753,20.559367,Εγκρεμνοί Cafe
55dc3aa9498e32ef9efd4d68,Vacation Rental,38.624785,20.607436,Mario Rooms
502a1969e4b0c6a764fc0be8,Café,38.62675857543945,20.60810661315918,Ionio Cafe
4e4ccbd8d164e69742d0053c,Boat / Ferry,38.561009,20.546438,Makedonia Ship
560d2a2b498e55bb85eccac2,Surf Spot,38.6278076171875,20.60819435119629,Vasiliki
4dfc519aae6033b2a47444ee,Surf Spot,38.631386982212135,20.600844296037646,Club Vass
501cec41e4b03b87a1c53b53,Surf Spot,38.632337257283915,20.59596556306503,Nefeli's Surf Club and Bar
598aabddfe374002782afe42,Boat / Ferry,38.62617,20.60753,Ionian Princess
59864001fe37406ea771a8ae,Creperie,38.62636,20.608013,Take Away
57a7402e498e93e2c270aea3,Village,38.63294,20.596094,Pondi (Πόντι)
520bee05498e5d0caae6ac6c,Butcher,38.63079299938857,20.60689687728882,ΚΡΕΟΠΩΛΕΙΟ - ΦΑΡΜΑ ΜΠΕΛΕΓΡΙΝΟΣ
51fa1e95498e583c4573e7cd,Boat / Ferry,38.62465910319934,20.606704711816718,Καπταιν Αριστειδης
4fbe788ee4b02646e943f150,Boat / Ferry,38.62644163010501,20.607682417639584,Marry An
4bc8ea35762beee1a6b03d38,Hotel,38.631656258457134,20.601468086242676,Portofico Hotel Lefkada
4e429ab01838ada3db5f11b9,Hotel,38.632354873051796,20.599395224675323,Odeon Hotel
4e3052a27d8bf59d291fc29b,B & B,38.63262891769409,20.59736430644989,Bayside
4e36e8522271b2cf0686b8a7,Hotel,38.64234097204151,20.599604731583582,Tower Villas
5766ce24498e7d23f42f1f1f,B & B,38.633036,20.595746,Argo Maisonettes & Suites
55a7a735498e4f2828dfaf3f,Hotel,38.629325,20.608714,Vasso's Studios
51c61d33498eb90024da9973,B & B,38.628002,20.609541,Isalos Hotel ( Ίσαλος)
4e416e186284809c9f3f138a,Hotel,38.63306365758554,20.596502869559234,Ηλιαχτίδα Studios
51e993a2e4b057f42fba0b12,Hotel,38.633128131154486,20.6008384953093,Kalias Hotel
59992596d8096e4e43f047e6,Bus Stop,38.628807,20.609224,Bus stop Vassiliki (ΚΤΕΛ Βασιλικής)
5b2653c173fe25002cdebcfc,Hotel,38.63016,20.60643,Captain’s Studios
527c8fcb11d2587da51896a7,Hotel,38.63202826485471,20.60448159826776,Xristina Studios
559809ba498e977a2375af35,B & B,38.632631,20.596078,Grand Nefeli
51f7bc53498e261d17979bf0,Surf Spot,38.632181,20.597275,Driftwood Bar
4c135252b7b9c9288562a937,Hotel,38.632117201401734,20.60075702030299,Hotel Enodia
5b0f1dbc1f8ed6002c8302f0,Hotel,38.633539,20.594571,Ponti Beach Hotel
55ec9d63498e98f069ed2459,Cocktail,38.62878560857247,20.608299303906847,Abraxas (Αβραχασ)
5128fb9ae4b0964b13820f07,Gas Station,38.629868,20.608229,BP
57b57dea498e66ea95ed7a5b,Lighthouse,38.563538,20.542683,Φάρος ΔΟΥΚΑΤΟ
5b70a5063fcee800398e219f,Food Truck,38.66143,20.558514,Fresco Canteen
51ee9cda7dd2b876fb6a2824,Vacation Rental,38.63291760374566,20.59734284877777,Savinos Rooms
5b8be19e610f04002c247651,Café,38.626667,20.608217,Enjoy
55f73e0a498e324dc4af6ba5,Summer Camp,38.629311489990734,20.607385613993646,Villa Angela
4c777ef093faa0934602f1fb,Beach,38.628749371731175,20.606355531377996,Volero Beach
4e4004cb1495bf24a5fb3a44,Café,38.626520553428925,20.6082065172438,Livanakis
52077adc11d240610e077eae,Beach,38.628674669903795,20.606762908567372,"""Akroyali"" Studios Beach"
59ce0fdee1f2284e6736b991,Beach,38.602418,20.632447,Spiaggia
57aa2ec3498e300d6cc25091,Plaza,38.62585,20.60666,Πλατεία Βασιλικής
4e49396c62e148603b960e8c,Café,38.62602501836046,20.607586159378936,Jomil
57a9ae03498e0e6e6e04f21c,Pool,38.628117,20.608942,Grand Theoni Hotel Suites  &Spa
50138a3fe4b06a7cda789d69,Beach,38.621986,20.607708,Agios Gerasimos (Άγιος Γεράσιμος)
4dbec65b6e810768bf950c8d,Athletics & Sports,38.63111484514534,20.602101358689463,Wildwind
4db575f8a86e8d2707978087,Café,38.62616038350886,20.60780843610746,Cheer's
57acda99498e036ce91c802c,Vacation Rental,38.622837,20.60782,VILLA THOMAS
5b2018d412c8f0002c4d927d,Vacation Rental,38.631216,20.605343,Billy’s House
50027e79e4b07c8ae96b9b31,Other Outdoors,38.57318885969899,20.607973401684507,Στενά Λευκάδας Κεφαλλονιάς
4e172a301f6eb653a5ed5626,Resort,38.6316451,20.60649295,Heliotropia Houses
50238e88e4b0e522d4a36424,Gym / Fitness,38.63132608672671,20.60081521673544,Nautilus Dive Club
53b6a282498ea7ec7d43910d,Resort,38.633884227745746,20.60570954786111,Riverside Bitchez
4e2d00a1b61cd0108385ee6e,Resort,38.63340882520415,20.594815181016056,Ponti Resort
541db20f498ead834aab7263,Pool,38.632558,20.596458,cosmos
5b40fc94c47cf9002c8a3eba,Vacation Rental,38.60185,20.622568,Amoussa Beach Villas
5405b3c8498e0d41122a46dc,Dive Spot,38.51458045942946,20.57121691815226,καταμεσής της θάλασσας
55cb6158498ec90d51cd770b,Hardware,38.628139,20.60938,ΧΡΩΜΑΤΑ-ΣΙΔΗΡΙΚΑ-ΕΡΓΑΛΕΙΑ
4e2ac119fa76bbf847d14bea,Accessories,38.627502740027886,20.608817255853047,Active Shop
4ff03301e4b0dccbdd489b96,Souvlaki,38.626759205198304,20.608002500093267,Αναμμένα Κάρβουνα
51f8e57b498eb607d1fd60e2,Bakery,38.62630891371262,20.608441829681396,Αρτοποιεια βασιλική λευκαδα
4c65c6a8aebea5936e6571d0,Cocktail,38.62958165392411,20.605452120382978,Cocoon
50d4a019e4b007d3a4708526,Boat / Ferry,38.52073066311217,20.629075769847642,Somewhere In Mediterranean Sea
5b072496628c83002c84841d,Greek,38.462109,20.552733,The Old Stone House
55cf0776498e97349a8935a8,Church,38.626969,20.630798,Ιερός Ναός Κοιμήσεως Θεοτόκου
50703babe4b037830b374f0a,Village,38.627920027718375,20.627434589449365,Κοντάραινα
521407e311d29a8bdf9739e3,Greek,38.62806384203328,20.626485965002647,"Ταβέρνα "" Ο Μίμης"""
4fccd461e4b05a98df59c8f8,Greek,38.46243587893266,20.553013735653654,To Petrino
51d1cd31498ee9212eaad55d,Residential,38.59959546275048,20.642775646133238,Eden Villas
4e31b756628483139910ec54,Greek,38.627918419209756,20.627388073488838,The Old Plane Tree
4fccd338e4b093c3859a9f7d,Café,38.462195,20.552921,Picnic
53e8c21c498ec724395060b9,Beach,38.47164660877797,20.56264485569413,Kimilia beach
579ca86f498e7d497082f53b,Beach,38.48833,20.653019,Χρυσή Ακτή
5035d4abe4b074a234c0291f,Hotel,38.465027623873794,20.566980343572254,Almyra Hotel
4c6bf86b65eda093228e4ad0,Beach,38.471527651302914,20.548466512032995,Dafnoudi (Δαφνούδι)
559cd73a498e53d72175af46,Resort,38.632637,20.594364,Altina
55b74050498ea59cf7c1f669,Pool,38.63213348388672,20.60076904296875,Phoenix Hotel
520e046f11d2f2057355ed7f,Apparel,38.62818636604761,20.606989875924583,Memory
502e38ede4b01a4fc0e7a7f4,Greek,38.626803,20.608004,Stelios
5024c48de4b0b95e982ab34e,Breakfast,38.630897,20.60249,Sunwaves Breakfast Time
4e58f772d164da2b275b74b5,Beach,38.6219021774872,20.60798504104792,"Παραλια ""Κολυβατα"", Αγ. Γερασιμος, Λευκαδα (Leukas)"
4e4b3160d4c0ae552d7fe5bd,Gay Bar,38.63227462768555,20.595993041992188,Έτοιμα
5211181611d2ef513bbf93f0,Farmer's Market,38.626804229360026,20.608316762957216,Μανάβικο - Πολίτης Νικ.
51f4336f498ebb382643fac9,Gift Shop,38.62684157654124,20.60838077947762,Ammos (Handmade Jewelry)
4e4b31a2d164d2bc73aafb70,Nightclub,38.632565725,20.597502900000002,Ρίξει
5002d37fe4b0a74a52f2c3a5,Greek,38.62649242150918,20.608223648025138,Kyani Akti Restaurant
4e4fba8fb61cf637a4f89ed1,Hotel,38.63210045567499,20.593196153640747,Sofia Studios
52414f05498ed7016d222be7,Vacation Rental,38.63870125541334,20.563279174276047,Rosoli Country Houses
4e10705a1495c8d31bbd8f59,Café,38.62993234,20.60483014,Remezzo
4f884173e4b0e67b83fb9491,Resort,38.613017,20.576583,Villa Helios
55cc6ea2498e217d1f58196a,Café,38.640472082535474,20.596520328420016,NEFELI Cafe
4c92415d2626a1cd5dfe386b,B & B,38.59970036588819,20.643310546875,Eden
4e5f96d6aeb7769b2d22bfcd,Beach,38.59803,20.617517,Camping Αμούσα
4c9cc5b7d3c2b60c9eb4babc,Resort,38.6339813,20.6311139,Myrthia
52262b8711d2f67bd102dcc8,Beach,38.61066629886419,20.656333099958555,Afteli Beach
554faef9498efa107677c436,Bar,38.633816675714925,20.61694156784934,S Cafè & Bar
5955724b73fe251e478ea1d4,Greek,38.620904,20.656579,Giorgalakis
55bca508498e286abb3f8d2a,Restaurant,38.621311,20.656192,Taverna Giorgalalis
502564eee4b095b2f26540d9,Gas Station,38.633845,20.616946,SPetrol
55d5cd6f498e14fa735ae5c2,Café,38.610532,20.656276,Afteli Cafe - Bar
52170a4d11d2695f50d76fd3,Village,38.620687419159005,20.655905334949775,Εύγηρος
55e75df1498e987d3d75436c,Village,38.62194061279297,20.656503677368164,Evgiros
4c9cd3440e9bb1f72e53d75f,Resort,38.63387814425518,20.63161902225424,Monodentri
51c8323b498e8699305aa69e,Hotel,38.636679039435975,20.62538602723958,Il Viaggio Verde
5022565ae4b0671298bc9c7c,Village,38.63047449527278,20.64946850937492,Marantoxwri
575e98c0498eeee2216cb819,Bakery,38.630272,20.64829,Bakery
5423d8b3498eb6929f16409d,Boat / Ferry,38.556434,20.65105,Astral Blue
53f0c80b498e9505bd384cd2,Church,38.645235,20.646826,Ιερά Μονή Αγίου Ιωάννου του Θεολόγου (στο Ροδάκι)
57aca713498e6d82ef9a5856,Beach,38.62138,20.68324,Παραλία Σύβοτα
4bf1928dd39ad13a9766aa0e,Village,38.62375416795367,20.681658816229312,Syvota (Σύβοτα)
4e52b3cf88775123c0ec98b5,Greek,38.62396026256471,20.681537860489836,Stavros Taverna
55f7b08d498efa73828094e0,Bougatsa Shops,38.6224066386463,20.682240822369213,Sivota
53dfc6e1498e877575eb52a1,Fish Tavernas,38.624944,20.682607,Taverna Ionian
57acc8b9498e93171c476ef1,Parking,38.62485,20.681335,Σύβοτα - Free Parking
5b5442a325fb7b002c513dcf,Boat Rental,38.622811,20.68212,Sivota Boat Rentals
55afa5e0498e97dbadd09169,Grilled Meat Restaurants,38.622715424617596,20.682683147227706,Ο Κώστας
53ef1225498e3f089cd5dab8,Housing Development,38.62507423556907,20.687513811069003,Villa view
4dfd18d9183853f2cb5328ce,Bar,38.6237284533444,20.681658816229316,Pirates
4c5d704385a1e21ed84e5911,Harbor / Marina,38.62399452454619,20.682101140869428,Syvota Marina (Μαρίνα Συβότων)
55af8b17498eed7d3e88801b,Seafood,38.624259179796695,20.681559875214123,Σπυριδούλα
4fd780e1e4b0228ffddd4991,Greek,38.623429,20.681756,Taverna Odysseia
4e4ac11d14951b66ae929bd3,Seafood,38.624911,20.682684,Ionion
53c02030498e4815fa5912e9,Greek,38.63307778698801,20.670629854426306,Agnantio
4fdc4559e4b014c45b3a09f7,Greek,38.6242509333807,20.681471620434397,Spiridoula
4e46d6ec227128e1e8d0f922,Cocktail,38.623081405694805,20.68208044093916,Trocolo
5224ca1211d22eec4b20c7d1,Residential,38.6234373532887,20.682019660002197,Villa Corona Lefkas Island
556f2c39498e747aa40af755,Tavernas,38.623781,20.681446,12 gods tavern
4dc62ee2887717c880377966,Breakfast,38.62370758041748,20.68205458037318,Family cafe
572db380cd10eebee640af36,Bakery,38.622761,20.682199,Sivota Bakery Cafe
5023fa71e4b02078c62f5fa0,Seafood,38.62204134019645,20.68266568703278,Τα δελφινια
4e7c1f63b61c3834b8f12d61,Harbor / Marina,38.624817153994854,20.682438704522237,Wifi Yacht Bar
556af7fe498eb57d3bb5e36b,Harbor / Marina,38.624805,20.682666,Tradewinds Cruise Club
55f99699498e782acac51b4c,Hotel,38.623287,20.681553,Galini Studios
5031cfbfe4b09116a26fbcbd,Beach,38.63238392413856,20.682060400435105,Vassiliki Star Studios Beach
52237409498e94e9fe8b8807,Vacation Rental,38.624119752065965,20.689754547370867,Villa Vela Lefkas Island
53ff257e498e36c0f5f31b75,Café,38.62489318847656,20.6828556060791,Yacht Cafe Bar
4fc22cf6e4b03f9cf9ffa393,Café,38.62186473340514,20.684637690324163,Liotrivi Cafe Club
57acad34498e5f5ea5b082ea,ATM,38.622814,20.682224,Τράπεζα Πειραιώς (ΑΤΜ)
5027d749e4b0235587f3986f,Vineyard,38.64797365044802,20.676254579639743,Land of Lefkas wine estate (Οινοποιείο Λευκαδίτικη Γη)
55e195e6498e5e9425953e6f,Beach Bar,38.63505,20.701867,Amos beach bar
50149581e4b034c3e04a81ec,Bar,38.62317627392444,20.70947902806005,Joy Bar
55bfb00b498eb47f928529ea,Beach,38.63055206292775,20.70780863314251,Mikros Gialos
53c7cd08498edadd729aca63,Beach,38.64103698730469,20.69148826599121,Κιμηλιά
53d3c46a498e546868c6fe0b,Piers,38.631028,20.69313,Rouda bay
4e196bf46284ea72470228b3,Other Outdoors,38.63918423652649,20.69225013256073,Villa Gaia
4e070ed9fa767637fd287e86,Beach,38.639683024263746,20.695790006137198,Μικρός Γιαλός
4fef53aae4b00918255a385c,Mediterranean,38.640866558742914,20.696767788249645,Menta Kitchen & Bar
59762b08b3d8e21b33f76a1a,Assisted Living,38.640396,20.694696,Natasha Studios
51c73527498e6e1b26d9c635,Italian,38.649031,20.681,Pizza E Maccaroni
50202483e4b0f1ccf48896d7,Greek,38.63979438988343,20.694998468822,Rouda Restaurant
4e2c12626284b96d7b8950e7,Beach,38.63955365052877,20.69536880512073,Rouda Beach
51879585498e3dfc9b38e11e,Other Outdoors,38.651763420081444,20.68606460984526,Φτερνό
520b858b11d27deba7f06249,Greek,38.6400282887012,20.695755085362244,Ta Kaboypakia
4e443231e4cd394059e6e7c3,Greek,38.638765943105646,20.699604122141253,Zolithros
51ee6c18498e9741d0a1b7aa,Greek,38.63851685266041,20.69999214682103,Taverna Molos
520fb731498e005af929875a,Supermarket,38.655461,20.69979,Benizeλος Super Magazin
50032affe4b01f40ceb74429,Greek,38.656070789624366,20.686023869274237,Φίλιππας
598b6c626bd36b43bfeba667,Grilled Meat Restaurants,38.639319,20.694604,Ηλίανθος
4e590f79d164da2b275cfeb5,Desserts,38.639898342874396,20.695912228857555,Lithos Cafe Bar
4e4e7285fa7626401e9ade4e,Bar,38.63945183,20.69888569,Geia Mas Cafe-bar
50099773e4b0b8de342acf9c,Greek,38.64,20.6959,Del Mare
5b2e5db96f0aa2002c3233f6,Modern Greek Restaurants,38.639508,20.694282,Marilion
4fef5d5ee4b0eb75853c019c,Campground,38.64092040780995,20.696034451590414,Camping Poros Beach
595a8578b37e2b1d8d667386,Hotel,38.63939,20.698147,Mikros Gialos Apartments
55aaa57e498e079a2c11d1aa,Hotel,38.64003669143102,20.69669212651005,Απαγιο - Apagio Apartments
5363c7e8498ed1294439116c,City,38.63971865586734,20.69743128370928,Poros
5366bde0498e00c99a5adf65,City,38.63947,20.6988,Mokros Gialos
57ae0b5b498e9392bf19ff5d,Piers,38.63868,20.699306,Poros port (Λιμάνι Πόρου)
53dbebd8498e64aeea06b6e5,B & B,38.640274689330596,20.69514979209174,Oceanis Rooms Mikros Gialos
5b476d02dee770002cbe35a0,Athletics & Sports,38.639366,20.694624,Periplous Experience
53c27a8c498ed626a1248a6e,Resort,38.63533744910141,20.70177311393084,San Nicolas Resort Hotel
4feda6b0e4b085aeb28e0208,Resort,38.639990417334715,20.695188416567493,Rouda Bay Hotel
5600108f498ea821c21c97fa,Boat / Ferry,38.62207963521374,20.68235140356828,INFINITY Sailing
53ed7568498edca68ff8b47e,Church,38.65321003968169,20.657430157884008,Ιερός Ναός Παναγούλας
50200291e4b02973fb15c991,Bar,38.623078,20.681892,Morganti
5029549ae4b030d4edf666c0,Tavernas,38.63070297241211,20.678640365600586,Ταβέρνα Θανάσης
5203c8a2498e3227adefc7de,Greek,38.621275,20.656201,Γιωργαλακης
50215ef3e4b093ddbefbdf45,Greek,38.656159,20.68601,Φτερο
52057b8011d27144276bac5e,Greek,38.65739822387695,20.686962127685547,harris grill
541c3470498eb661ff1359ca,Tavernas,38.6420783996582,20.70747184753418,Nick the Greek Tavern
503ba810e4b01034f3077fcb,Mountain,38.65562057495117,20.66813850402832,Λαινακι
55ff28ed498e50d6386cad96,B & B,38.63357925415039,20.670122146606445,Pantheon & Danae Luxury Villas
4e1afc83a8099b42ff87c903,Beach Bar,38.63757247470898,20.558542785758846,Egremni Beach Bar
51867387498e995ae57d124d,Café,38.639502657002936,20.698897959186457,Kafenion Poros
51ee8de4498e08cbc6281cf1,Resort,38.640594482421875,20.697031021118164,Rouda Village
51eaefca498eeefceeb271b8,Village,38.6574592590332,20.686954498291016,Fterno
595612aab37e2b6d5900eeb9,Hotel,38.638596,20.70001,Captain Nick Hotel
55b9ca0d498e59094947db35,Beach,38.6381417996869,20.687537091424414,Παραλία Έμβλυση
5229f2de498ee7e938750c15,Vacation Rental,38.622459,20.681898,Asterida
51f657d4498e43dc88613480,Beach,38.64130783081055,20.735488891601562,agrilia
4c56a5896201e21ee9816a6d,Harbor / Marina,38.56218699536782,20.733208194390382,Off Shore Meganusi
530ce9bb498e53de4eb090f8,Island,38.67065513843274,20.690522800790315,Ithaca
4e1b3a522271644b9af9c98e,Greek,38.67265666542447,20.71121344751426,Desmi Taberna
55784bc3498e568720f5a429,Assisted Living,38.670918,20.70717,Adigoni villas
540daaaf498e05abd311fa97,Campground,38.67287555575493,20.71154519916826,Desimi Beach Camping
4db30ddf6a23c31a02f93e21,Village,38.66744472978339,20.69157623999787,Κατωχώρι
5acb1badf4b5250c90034798,Beach,38.655558,20.718826,kamari
4fe6010be4b03458435851c9,Church,38.64549382737616,20.73736390094948,Αγ. Ιωάννης Μεγανησίου
52123bf2498e1e599e4ca333,Desserts,38.67038164703017,20.712715060985484,Fresh Ζαχαρόπλαστείο
50152c4ee4b088cc6cbf9418,Surf Spot,38.643416964537494,20.73619394132236,Agios Ioannis Beach
50277a4ce4b0fe423213cf4e,Beach,38.6679301465454,20.722248603507996,Ormos Dhesimo
53998784498e914689225dc7,Seafood,38.67265289220378,20.712645218457393,Πυροφάνι
5200be40498ec1b0f6526f5f,Tavernas,38.64910888671875,20.73920440673828,Il Paradiso (Gavrilis)
5b5d7b4f90d1ed0038465543,Beach,38.651716,20.738318,To Taxidi Tis Falainas
55e22495498ed112b90870cf,B & B,38.64616940849992,20.738353356926833,Γαβριήλ
4c5c199e7f661b8d5b89471c,Beach,38.65772715209942,20.73674694644153,Thilia (rock with a hut on)
501ec512e4b0c30286c8d8df,Village,38.66888699916449,20.65610903255272,Vournikas (Βουρνικάς)
5b6716f935d3fc002c871e34,Tavernas,38.667843,20.654207,Χασαποταβέρνα-Ψησταριά Giannis Katerina
51894e87498e3ec48d7e7e45,Pizza,38.659751892089844,20.759672164916992,Tropicana
55c07c54498e4569ac09452e,Island,38.65931531571318,20.759458055410885,Meganissi
51f573cd498e5083d6b0a02f,Supermarket,38.65887630139395,20.759498798410103,Supermarket
57ae0eb6498e0d78c56047e8,Kafenia,38.65949,20.759174,Ο Πίτσας
4e1c267ed4c046250766026a,Greek,38.661081429582936,20.759647866062473,Porto Spilia
598dec152aff3159d828a341,Tavernas,38.659053,20.759524,Tsovolas
4e8897928b81affddc4537fe,Village,38.66002017731464,20.759667590849194,Spartohori (Σπαρτοχώρι)
55c75aaa498e0be325cdefe4,Beach,38.659298944353345,20.73863855320648,Stravnam beach (Παραλία Στραβνάμ)
4e158301c65b14b6ca33e9fd,Greek,38.65945284166079,20.75941731241296,Lakis
51f574b3498e942ec9703b60,Park,38.659478623299094,20.758195023076386,Playground
535154cb498e9491372cbdb4,City,38.66009480023474,20.759795640300535,Spartokhórion
4e181697ae6092c2764e829c,Scenic Lookout,38.66007122432339,20.759533720981885,Spartohori Scenic Lookout
520ccde111d20f76c026a2a6,Beach,38.666021,20.748874,Xerniades
50013840e4b07c8ae8d4b24d,Beach,38.663495173744835,20.75395194200048,Private Beach
4e7f2e0493ade48c9ac549c3,Other Outdoors,38.665560114432765,20.750104661198684,Meganissi Bay (Κόλπος Μεγανησίου)
59b684432a7ab60698fd94dc,Café,38.660077,20.759813,Summer Sun Cafe Bar
4fe612f4e4b00cda58fde0d3,Resort,38.66267493659566,20.756722456994027,Esperides Resort
4e81863482316360ab1737ab,Cave,38.613861485971206,20.76333446654322,Papanikolis cave (Σπηλιά Παπανικολή)
53a70fe4498ea11534445244,Church,38.659527233523086,20.75992951019513,Agios Iorgos
520f4400498efb9b73bbd62c,Harbor / Marina,38.660555613566224,20.76413768832606,molos sphlia
502a5837e4b0fc9ab3c8ed51,Beach Bar,38.659000837170915,20.762996192664577,Agrios Beach Bar
55812d1a498e0f63dab70637,Tavernas,38.65906906810776,20.763608027529084,Taverna Spila
5176d8c4e4b078f57f285659,Scenic Lookout,38.66015459381106,20.761215825979555,Στεφάνι
5215c31a11d273fe57f6da52,Vacation Rental,38.65933,20.780893,Elli's Villa
520f5a0511d2c55e1e987d61,Beach,38.65939302162792,20.763031803392398,Spilia Beach
52038dea498e20186e6586b6,Café,38.65898656969427,20.762793165188924,Acqua Seaside Cafe & Bar
4de9e8b8d22da22d4ec5b47d,B & B,38.677377,20.740945,Hotel Iris
538b5779498e7a14c99b4d3f,Trailer Park,38.674117497149204,20.714990765547668,Camping santa mavra
5998417b491be70d55097a91,Hotel Bar,38.6736,20.713943,Menes (Bar - Restaurant)
5979da202955135bd7025508,Cave,38.673777,20.715237,Σπηλιά Δεσίμι
520e1fbb11d2f2057445c60a,Greek,38.67390174056117,20.714356361547413,Maza Masa (Desimi Beach Tavern)
4e3e7da9fa76455375c5beb4,Beach,38.67423461521455,20.713960586741766,Desimi beach
520f24ea498ea8b6e9b78c5e,Residential,38.675731,20.709395,Villa Agni
5992e24dc4df1d0c18d96e33,States & Municipalities,38.673843,20.712816,Δεσίμι (Desimi)
55d5d181498ef2b35a8dbbc0,Beach,38.67392,20.721831,παραλια Κοκκινος Βραχος
597506ac0fe7a019d086fda1,B & B,38.673705,20.714071,Desimi Rooms
541ea833498ee14d9f88ece4,Beach,38.67332458496094,20.721696853637695,Red Rock Beach
522861d011d2dea3d32b386a,Beach,38.674028,20.722018,Lakka
4e413cc0483b72d779de4033,Other Outdoors,38.68273147184484,20.698414887303432,Vlichos bay (Κόλπος Βλυχού)
4e745b1c1838f918895c20d6,Hotel,38.67402859491759,20.71429233914368,Hotel Cleopatra Beach
5b8feb04deb49500257e88f5,Hotel,38.676323,20.707977,The Garden's Studio
577fadd9498e5c3b9e313ed1,Café,38.675583,20.711745,Θέα
55ba27a5498e77bdd76b1e2b,Island,38.67934563721878,20.751800537109375,Πριγκηποννήσια
4dea85ad88774880e31ee047,Tavernas,38.68738774,20.69000988,"Ταβέρνα - Ψησταριά ""Το Χωριό"""
4f89da19e4b09efba1eccd01,Church,38.6788645,20.6985207,Ieros naos agiou spyridwna
4dfdd12218a8eee4fe417d81,Greek,38.682647,20.700043,Elena
500dad0be4b0629c8c85c444,Bar,38.6850483739947,20.728522855573424,Pyxida
5207e7c6498e9242820576a8,Greek,38.687821,20.712251,Taverna Elena
502ff25be4b060c1a5aab4fd,Mediterranean,38.687348749416984,20.712074837961204,Taverna Dimitris
533c1eb4498ec9ed46fe37aa,Building,38.69267299705078,20.711964254018365,Villa Vangelis
5217a2b011d201d9c43a53b0,Beach,38.6879342153299,20.741529959069492,Skorpio Beach
5027b108e4b0e4d960802095,Hotel,38.678138732910156,20.697114944458008,Georgia's rooms
5a5b17807269fe3fb594e7c5,Gas Station,38.677428,20.697776,Ελίν
512a3664e4b040b1d4f62e97,Bakery,38.677661,20.697911,Καραλης
5211283511d2d4d0cebbe6cc,Greek,38.68003052841153,20.697605887838677,ΘΡΑΚΑ
520fd44411d2f851c99b3588,Greek,38.686317,20.711885,Hippocampus
504267c0e4b06a01ba925c0b,Restaurant,38.69082101913272,20.71053795427477,Seaside
590643ccf96b2c6e69271310,Greek,38.687737,20.712334,Gialos Restaurant
4e56d24fb0fbf4af4aeed7ed,Food,38.687047513957054,20.69872335486895,Καθ´ Οδόν
5221cc2911d2791145eb51e6,Bakery,38.685964892600715,20.699881563982903,Σαμαρας Φούρνος-Ζαχαροπλαστείο
520cb58d11d2af267836616f,Coffee Shop,38.68495647406765,20.698403247019495,Fyki
55ca52de498e3c20d76fdfb4,Residential,38.684131,20.698456,Sofia Apartments
4f9aaf0be4b0d2bd61aaf3ea,Resort,38.68822005643832,20.71282564499648,Helios Club
53ce7ca7498e22f5db39148c,Village,38.68778767101934,20.712404251098633,Geni (Γένι)
4e566d621838c793c0775ea8,Village,38.68575104991808,20.698438167871647,Βλυχό
53ee63c5498ec29c3e206926,Tavernas,38.685835,20.688531,Ο Παύλος
5027eb1ae4b0235587fe7016,Village,38.685930308223355,20.688445025641784,Χαραδιάτικα
53989131498e562b4177c6db,Greek,38.68799215057182,20.69874081529956,Limanaki
52087f3511d22e8e0d7303d1,Hotel,38.693182120632606,20.70942082610788,George Studios
4c5c359b2815c9280556b167,Harbor / Marina,38.68478628712323,20.69845562829811,Vlycho
57b47e76498e88ee81dfc625,Gas Station,38.69425,20.700665,Revoil
53f5d499498e9dac1dd1631e,Beach,38.68443943875938,20.69999214682103,vlicho
53e9f009498e0740799b1a72,Hotel,38.69097357456094,20.71272670140722,PIRATIS
4e2b0586d22d3f83c88a5ab6,Harbor / Marina,38.683436,20.69825,Vliho Yacht Club
4c62dd40ec94a593e6502aca,Island,38.69187432958306,20.74244499206543,Skorpios (Σκορπιός)
4f88259de4b005979d0276fa,Other Outdoors,38.69722083519073,20.726520678913197,Alonia @Meganisi
50fae355e4b00afff923a797,Restaurant,38.696041107177734,20.700469970703125,Κτημα Γαρδελης
5056f30ee4b0a9a6e80fe9c0,Hotel Bar,38.703131,20.708257,Athos Hotel Pool Bar
55b3f8f9498e0739f1226318,Housing Development,38.699663,20.712646,Villa Nefeli
51d9b072498e96dcc05af7d9,Housing Development,38.698959,20.718353,Korakias' Villa
55c65381498ec1c7bed23782,Gift Shop,38.70314046329067,20.707802812955187,Photo Art
57c1ea6e498e1de2b6138fa3,Boat / Ferry,38.69426,20.743248,#Grailingtrip 2016 Schlafkoje #1
51df05ee498e4d50c5ffe72e,Pool,38.698965,20.718319,Piscine Korakias Villa
4e4a8865e4cd4fd730053f77,B & B,38.70085525512695,20.705081939697266,Nefeli
51e16ff3498e6f173fe8f324,Roof Deck,38.698988,20.718371,Terrasse Korakias Villa
4debe37a88774880e3423c4c,B & B,38.698807716191936,20.706846714019775,Iris Hotel
51cd1261498eb94ddfd2ce79,Boat / Ferry,38.69000545775101,20.75016286505761,Αγχίαλος
5014494ce4b010591f9dd8cc,Grilled Meat Restaurants,38.68590783555589,20.688402077636415,Pavlos (Παύλος)
4f88353ce4b0ab5c86bf1266,Dive Bar,38.70382308959961,20.707387924194336,de vine bar
559b8b91498e9094536542d6,Residential,38.701150641066604,20.7051720911473,Vila Marinos
51e98f88498e36d5c4d8643f,Resort,38.7033058249259,20.710200732498674,Nissakia Hotel
4e551f0ad4c0fe0342826cc4,Hotel,38.697088,20.710211,Vliho Bay
5020315ee4b06ef5d2a01a03,Boat / Ferry,38.701436,20.709267,Blue Star
508d635be4b0b3d62ed317b6,Ice Cream,38.70424033720875,20.707552544926525,Gazis patisserie
4e2019a2aeb7026395215708,Pool,38.698714,20.707035,Iris Swimming Pool Nidri
55bf0528498e975765d097e0,Pool,38.703199275355594,20.707802812955183,Athos Hotel Pool
4e2fe59bb0fbdc2b65057b6d,Hotel,38.70319488249118,20.708210226135623,Athos Hotel
5024be39e4b095b2f213804c,Hotel,38.701234,20.707394,Armonia Hotel
503942a2e4b03fdd88b0f36c,Hotel,38.704267,20.707172,Captain Stavros
520a1f0411d2434df55b18d4,Field,38.701194,20.714911,Ktima Lyk
53d3e28e498e546868cb2103,Hotel,38.70327568815365,20.706033477304157,Phillipos Studios
4e3af60c1495c19cfbc9d17d,Cocktail,38.7036858,20.7085019,Rouge Booze
504e54ffe4b0eb5d1fb18b2c,Vacation Rental,38.70354907367515,20.706836662246324,Aggelos Apartments
55927394498effd536fbe349,Resort,38.703679250761944,20.70757000548499,Hotel Oscar
536b1617498eaa9d743aacef,Island,38.705973015053154,20.7213464641369,Skorpios
502bb768e4b0e9c46a5cf1f7,Beach,38.70684100004799,20.71889614054059,Μαδουρή
53b42fe0498eccff0c78b746,Island,38.70303747500688,20.721567633727982,Isola di Scorpio
4c04e515f423a5937723d216,Italian,38.708080668368744,20.712301826085852,500 Restaurant By Marisa
4f8938fbe4b0e67b84e39346,Boat / Ferry,38.70301447754111,20.71588708001782,F/B Meganissi II
53a5da48498ea256c9348f6a,Bar,38.706521897043814,20.714827799351013,Status Club
4e7eed629adf979a3f172a0b,Church,38.70517081869134,20.714356361547416,Αγία Κυριακή
500c759fe4b02f47f7bec333,Lounge,38.70824165770444,20.712505533413225,Mythos Club
4e4975b2fa76a0c058c4662c,Cocktail,38.708008,20.71242,Notos
5186ae9c498e5f560769139e,Greek,38.70821190917783,20.712371668594255,Roots
57a9b90d498e19d645ebb1a3,Boat / Ferry,38.70595,20.712946,Ferry Nydri - Kefalonia
55939597498e860a8a07cece,Beach,38.708308,20.712865,Island Beach
53c94e06498e10c40af32dc1,Nightlife,38.704534976053985,20.711906051947224,Open Sea
5027dc12e4b0db2acb0c4c6c,Harbor / Marina,38.70662483667979,20.710677988895178,Nydri Marina
502d521ae4b01a4fc084c7d8,Italian,38.70636391817247,20.710002845755096,Catamaran
4e4548a1b0fb93df26f91a52,Chinese,38.70533752441406,20.70948028564453,Jasmine Garden
57cd42aa498e6ab8337bb1c4,Liquor Store,38.70564,20.709675,Dionysos
5028bb5ee4b0f080a66b2db1,Butcher,38.70610748277439,20.71068962929743,Butcher
4c63102eedd320a12978ae29,Italian,38.706099,20.70977,pomodoro
4e443663483b132669d376bf,Italian,38.70528450718488,20.709339343379533,L' Approdo
5355760f498ededd71a60446,Italian,38.70613112848205,20.70979136170573,Pomodoro
4e232f65b61cdcf1ecd01a93,Greek,38.706051,20.709651,Mandarino
4e5f277efa768fe5f2d17f9f,Boat / Ferry,38.46221163315722,20.576547577385337,F/B Captain Aristidis
596ccb45088158316622802a,Greek,38.70646254983049,20.709357261657715,Bardis Tavern
51d31b88498e13f81b7f8b7b,Greek,38.70573662457506,20.70965494380583,Simposium Taverna
50097fa6e4b072710d26c1fb,Desserts,38.705153396840636,20.709350983768964,Break- Creperie Cafe
4e0b267845ddb226bd8be43e,Greek,38.70561306878032,20.709669869409797,Piperi
54114207498e8746d49fb909,Breakfast,38.705783068823024,20.709630353148743,il vero
4e0b76fbd4c091ae45dc1ad9,Cocktail,38.706236938584524,20.709321882795596,Biblos
4e09f85cb61c60b045567e89,Seafood,38.70636387420116,20.70926088850708,Ola Kala
578a8957498eb48f09d79d7a,BBQ,38.705984377752436,20.70976544057384,Daltons
51dad8c5498ef6df3c896596,Greek,38.70623740527554,20.70991979948502,Basilico
598b1c894940bc18c7699900,Port,38.70575,20.709772,Port Of Nydri
53a19051498ec06f076a9665,Greek,38.705593,20.709373,ERGON
5790f9f5498e0b0b8e921b3a,B & B,38.706491,20.709395,Eleni Rooms
4e4838e318a8f9804ce14009,Café,38.70644254780916,20.70927532123967,Cafe Presto
4e0b21dad4c091ae45d8aff7,Beach,38.7109715428812,20.7149733048827,Nydri Beach (Παραλία Νυδρίου)
52037ecf498e3ec9eb6c70b5,Hotel,38.709289,20.714112,Nydri Beach Hotel
50069078e4b0a69557b829f6,Hotel Bar,38.710501979709875,20.715275956444135,Orion Hotel - Pool Bar
4fd38dd9e4b0e8d49cf436e3,Tavernas,38.710801,20.715726,Avra
4dc2fa12ae608779d0fd7c71,Hotel,38.71051146666667,20.715041533333334,Eva Beach Hotel
57593b0d498ec6474a20b9bf,Island,38.709698,20.713882,Λευκάδα
59970312286fda1d6889e817,Tavernas,38.711258,20.715982,Taverna Delphini
5326e89c498ef4ac2e8f0736,Café,38.71038105574333,20.716661170316254,"christiana hotel,beach bar,restaurant"
50237fd1e4b065daa4d1fe56,Bank,38.70977538428919,20.713384385415996,Alpha Bank
4e4960e5e4cd4fd72ff7921d,Church,38.71002873021594,20.71390238457529,Kimiseos Theotokou
5788a4ad498e1129b18705d4,Supermarket,38.711132,20.713919,Market In
5b5704671953f3002cbf04a1,Greek,38.711124,20.713808,Scorpios
5907a83e35f98308de38811f,Hotel,38.70896,20.712986,Gregory's- Nydri Blue Complex
59358437dec1d626f5ffbc61,Ice Cream,38.708332,20.712183,Γλυκοπωλείον Κουσκούνης
53d539c9498e34dae14cb7cf,Pizza,38.710535,20.713686,da domenico
50243a52e4b03cb31caedc01,Roof Deck,38.71111101159434,20.715945282278863,Villa Christos
4e29897d62e17c3301a9004b,Historic Site,38.71361063525892,20.715729933926834,Monastery Lefkas
51d48982498e9b7033f5cba3,Hotel,38.71123964843795,20.714292339143682,Gardenia Studios
4ff608cbe4b0cfb36f283097,Resort,38.709571838378906,20.714319229125977,Hotel Gregory's
55bfb0bd498eb47f928726cd,Cocktail,38.70991134643555,20.712993621826172,Athos Tree Bar
56817a39498e639d2337bbdf,Hotel,38.71100650013957,20.7152259349823,Avra Beach Hotel
5755889138fa88b843ec5134,Cocktail,38.710255,20.713518,"Српски Клуб ""Centro"""
50470a9de4b00b7e45a238a6,Nail Salon,38.71292141890924,20.71489764200406,Sea View Nails
57bee7e7498e489f95735f3b,Massage Studio,38.711697,20.715052,The Hammam
5b570d9682a750002ca35898,Ice Cream,38.71113,20.713873,Grand Gelato
5b8f6c05c0f1630039d374c6,Hotel,38.70981,20.713507,Nidri Zone
53d694e3498efde7e4bda7a8,Greek,38.710975646972656,20.713916778564453,Pasta and Grill house
5013dd9be4b0befd130cac9b,Island,38.70681209472279,20.724763870239258,Madouri
502e6d0ae4b0b666523afc02,Hotel,38.711382,20.715978,Akti studios
51d45d9b498e120a82c9b1e9,Hotel,38.711917877197266,20.71559715270996,hotel palmyra
500c1ba9e4b09384539f5983,Greek,38.71012745351825,20.713412761688232,Fantastica
50098af3e4b08aad42e144be,Auto Dealer,38.71099812831796,20.713777542114258,Simx
5788a396498e9c3e09fcccf0,Greek,38.71184,20.714458,Boleika Grill House
502e981ee4b01882f867bdbd,Automotive,38.71146147569382,20.716090787943592,Homer car rental
517576d4498e0a485a752afa,Salon / Barbershop,38.710867,20.713844,Κομμωτηριο For Hair & Him
501d77c4e4b03fc92299d70a,Beach,38.708376,20.714132,Kavadas Watersports
5591a623498e8ebad48d45be,Ice Cream,38.70989990234375,20.71377182006836,El chocolate
4dcabe5ed4c07b35011d7e01,Hotel,38.7106292,20.7128899,Hotel Lefko
577d5cdf498e0faef8a73c41,Hotel,38.711933,20.715355,Afendra Studios
4e0f77ccae603a50b54cc4dd,Greek,38.70870508428741,20.71350078970229,Tom's Seaside Restaurant
51c81359498edaa231b0918e,Newsstand,38.709496,20.713095,Fruit Market
501136cde4b0adaeafa36201,Café,38.710130025353436,20.713401846058236,Karma
57906b00498e249c950afd71,Residential,38.711812,20.71449,orion hotel
574e9a69498ebbeb110e2832,Café,38.70858,20.712116,Café Pyxida
57c5551dcd10e8e4d7f0c10e,Hotel,38.70894,20.71368,Villa KATIA
502a813be4b0075a1978649f,Grilled Meat Restaurants,38.711574,20.714295,Χασαποταβερνα Νυδρι
531f438411d2d892a6f13273,Rental Car,38.70913415305201,20.713128296025264,Sixt Λευκάδας
500fe814e4b0bff601beded6,Greek,38.708954900329,20.712700510459523,Obelix
4e5a13b9c65bcd7cbe3d120d,Snacks,38.712638,20.715749,Seaview
5051992de4b0e80b15b94e6f,Vacation Rental,38.709753,20.712789,"Villa Cosmos, Lefkada"
4e226f07483b041af1f7e8f8,Greek,38.712273459835195,20.714525147900623,Bel Air Nidri
5378958b498ea48ddaf8b91e,Pool,38.710608308081426,20.712907127958378,Lefko pool
58bc52f255d622497a49c11a,Beach Bar,38.70867110543619,20.71315989146963,Maraboo Beach
50827a96e4b0ee1f0ed24559,Hookah Bar,38.70898432332563,20.712930408805633,Fuego bar cafe
5bc0657ca2a6ce002c9fe142,Kebab,38.70841,20.711937,Tasty Gyros & Grill
53f505bc498e7a69316d8145,Cocktail,38.708866050313055,20.7126119929273,The street bar
5992ebd3f870fd2c3094d8b2,Fast Food,38.708436,20.711765,Gyros And Grill 1988
520a78a911d210256750de7e,Department Store,38.708509421414156,20.711906051947224,Trendy Shoes
53b4680f498ec20e7dece55e,Ice Cream,38.70872337785739,20.712365848385073,le chocolat
50243421e4b020e1a1e94fa7,Mountain,38.71016309632071,20.710864235344637,Eglouvi (Εγκλουβή)
51eacc0f498e4904e3efe7db,Hotel,38.712032318115234,20.71412467956543,Borsalino Studios
55bfb8bb498e2be8eb2b4416,Restaurant,38.70966183731947,20.711917692361233,sapore di piperi
4e4a1236b61c688648561bdf,Bakery,38.70895149068995,20.712767442884182,Bakery
4e57780b227131507c8d3bfd,Hotel,38.71085338302992,20.712103939000457,Nydri Royal Hotel
55b53007498e095b0826bdc7,Rest Areas,38.71282931973647,20.714950023996465,Vila Rigas
51f035af498e48469d9404dd,Greek,38.71315922392799,20.715706653026185,Pinewood Restaurant
4e1369b2d4c07597ff922d05,Greek,38.70796657301208,20.711917554912088,Flisvos
53b035c7498ef536313c0c2c,Pool,38.713712,20.714848,Hotel Sands
518159ad498e85106ec7bd55,Sandwiches,38.70785291697064,20.71112392407152,Peter's Place
578d9982cd10fae9c4c76e67,Bakery,38.709115,20.712614,Αρτοποιότης
4e0a18f2fa767637fd3d22fe,Bar,38.708659,20.712525,The Old Saloon Bar
4e0a35588877454525bb0543,Bar,38.70825058949664,20.711633743502606,Centro
4fc06221e4b02db73dc544bf,Resort,38.712523353281,20.71552622606118,Sea view
51c6a7cc498e003bf1ce1d8f,Café,38.70898123679742,20.712633578036435,Yummy Yoghurt Cafe
4ff098e0e4b0b29eb19d4b7d,Greek,38.708084750412716,20.712138974493527,The Barrel
502e1d8be4b047efecc0a89b,Surf Spot,38.71186882967378,20.71356481206449,X-spot
5b4f22f6de3bbf002cc5db6a,Athletics & Sports,38.71255,20.71588,Horizon Watersports
55ca6296498e7ce30a88415a,Fish Tavernas,38.70754869902182,20.711393873841182,Panorama Greek Restaurant
4e3e6536b61cb577be842a96,Pool,38.709435,20.711157,George Hotel
5784cf6f498ea79bf04b8ba1,Hotel,38.70929,20.712257,Santa Maura
4e53db62ae606f5737a40b21,Café,38.708002789649186,20.711812928639187,Elidor Café
57966195498e10e6ac124982,Creperie,38.70833,20.711985,Greek Corner
594cef9372475005581ea3e7,Fast Food,38.707855,20.711219,Kokos pita
5728fa42cd100108cb05f09b,Souvlaki,38.708945,20.712328,Οβελίξ
518fe4a0498e23058530b833,Food & Drink,38.70795691392743,20.711341492001576,"παντοπωλειο ""παραδοσιακό"""
502189ade4b052a447278e59,Fish Tavernas,38.70763193242882,20.711376413227725,Apollon
5220fb9611d21db200d975e8,Greek,38.707889556884766,20.71131706237793,Kafeneion
4e4fc59318383eb2af2595ec,Water Park,38.713737095392865,20.715788136180397,Crazy Shark Water Sports Nidri
59557dbb356b4951a5142bc6,Cocktail,38.707855,20.711918,Es Co Bar
577f8570498e9c0b4a4083f1,Post Office,38.70797,20.710827,ΕΛΤΑ
53f98007498ec6032ff1b053,Boat / Ferry,38.707468,20.711623,M/S Christina
53ebea9e498ea3342cb2c156,Wine Bar,38.707575,20.711154,De Blanck Wine & Champagne Bar
4e00ef9a7d8beaa1649e1c53,Tavernas,38.7077019317483,20.711520269291313,Panorama
5b4125609ba3e5002cf7abe7,Beer Bar,38.708374,20.711147,Desperados
502b8038e4b0b2dbe8d9f6be,Plaza,38.70672,20.71072,Onasis Square (Πλατεία Ωνάση)
53c99ad7498e4ec996a8f5a6,Beach Bar,38.70859752110496,20.713231241046977,Paco's Beach Bar
520fc91c11d29d95215924a5,Bar,38.708301,20.711659,Event Cafe
530b255c498eb0cfdd0078a4,Bar,38.707942962646484,20.711753845214844,Ελίτ
57a824ae498e416b9006ef47,Cruise,38.707705,20.71151,Urania Sail
577e14d4498e70faa26fa3f5,Vacation Rental,38.709217,20.712067,Villa Vassia
5214b0c111d2c6e2e8110536,Vacation Rental,38.71211390838847,20.71337856520197,"Villa ""Dionysos"""
52246a5811d2087432e9f29c,Spa,38.70769870645659,20.71088169595074,Fish Spa
4e1353d8fa769d21e9fdd0c3,Greek,38.707801,20.711702,Maistrali (Μαϊστράλι)
50381c79e4b0282c9eabff32,Residential,38.7130126953125,20.711891174316406,Villa Konstadina
57aa0964498ec3e6508e6e91,B & B,38.709414,20.709282,adria appartments
4c4a26e49c8d2d7fdddb1d69,Beach Bar,38.71351637519936,20.71569000382567,Sail Inn
50239089e4b0dc2236537cfc,Surf Spot,38.713829040527344,20.715986251831055,Sol
50238ff7e4b01094646ed321,Volleyball Court,38.713592917867444,20.715712473251305,Dennis Sports
5206ab1311d29b25be1c05c3,Yogurt,38.70807452769463,20.711277469756237,chillbox frozen yogurt
501fea98e4b0f5050d152e92,Beach,38.72406982943801,20.729681092966615,Παραλία Πασά
53e72090498ec28b247c0c24,Beach,38.72478773371101,20.72983242054505,passa beach
501d57fde4b0f5050bfa5a43,Water Park,38.72430724278864,20.74797440179769,Sail Away
5187af52498e4292b325a9fc,Island,38.71698165426723,20.743213343193663,Sparti Island (Σπάρτη Λευκάδας)
51c93fe9498e119a999d1b9c,Pool,38.718764904444846,20.72508307150679,sunrise Studios
57a3386fcd10e10006eec302,Optical,38.715374,20.71503,I-wear Νυδρι
5339738f498ebc33d3430295,City,38.7161261136977,20.71622465317044,Fiskardo
4e440dc1aeb7d02fd0e621af,Hotel,38.72333927409949,20.72649739780828,Scorpios Hotel
5053a7ace4b0b91424abdabd,Bar,38.71944808959961,20.72274971008301,Status
51dcec11498eb0201ecc46fb,Pool,38.72323749560025,20.725554513427493,Oasis Hotel
53d6ac32498e2d67265a93b8,Residential,38.724153,20.723584,Villa Del Sol
5000f237e4b031e9caaf7b50,Resort,38.74010579084491,20.730763667587347,Meganissi Villas
4c658bd6b80abe9aae88cae5,Greek,38.72946484168818,20.732171501030443,Keramidaki
57b8adab498ec3e4b35729bc,Seafood,38.740368,20.730744,Ionian Blue Restaurant
51ded8b3498edeef148df255,Assisted Living,38.717350006103516,20.718746185302734,Αχιλλέας studios
51f414f7498ebf41223b208b,Vacation Rental,38.722731,20.72504,Νηρηίδες
5038c9b9e4b0901d6bd6017e,B & B,38.72310022778168,20.722452312489743,Το αγνάντι του Καλού
53d4d430498e4febaf67b894,Hotel,38.72139358520508,20.724706649780273,Tropicana inn
51d3bb1d498e1941337db72b,Residential,38.73224804809984,20.729814959669678,Anemony Villa
4ffb2eb1e4b02ca33dead85b,B & B,38.719970703125,20.721899032592773,Bella Vista
5b69a901efa82a002bb60522,Boat Rental,38.717148,20.719818,Dimosthenis Motorboat Rentals
55c1eb6e498eb419dd23d8e4,Surf Spot,38.723813507710545,20.724000501851435,Αη Γιαννης
4e359942b0fb59390ea0952a,Boat / Ferry,38.719129,20.723901,Cloud 9
4c6ee0e59375a0938c350237,Italian,38.715018204708386,20.71620137226037,Da Zio Fede
57b18a20498e73f731a986eb,Bakery,38.71467,20.71549,Αρτολιχουδια Το Σταχυ
55bdf10c498ea2a02bf974e0,Surf Spot,38.718280915334354,20.731939367974423,Porto Varco
4fbbb619e4b039e2d744709c,Hotel,38.72110002042569,20.723918213968535,Poseidonio Hotell
5b3fa083d69ed0002c51330f,Hotel,38.719456,20.722406,Gianna Studios
504315afe4b029b249e31cef,B & B,38.71690079259126,20.717772834683906,Pension Marina
4e183a7e14957dc705d4e7e5,Resort,38.71822828898617,20.72255707712204,Vaya Hotel
57996c3ecd100378fbc21d1c,Residential,38.718723,20.721507,Villa Spiros
4e60b404b993678bb583e78b,Hotel Bar,38.71530487131801,20.71633523749931,Madouri Beach Bar
50d8c35ee4b0feaa5b1a5b27,Hotel,38.71904,20.72088,Hotel Arion
53c7d6a1498ee4c3c77e4bab,Hotel,38.718867620913436,20.721200957848662,Hotel Nostos
4e204204b0fbdf9ba79d050a,Hotel,38.73306,20.73185,Red Tower Hotel
4e25c764aeb7df1e0f4cc548,Food,38.73692297997178,20.731398080034438,Nikiana Taverna
504b8131e4b0548541ce8e4c,Greek,38.736712,20.731309,Nautilus
503a6e0fe4b0b44f29000327,Greek,38.71507813585417,20.71628867567541,Kalypso Taverna
5038b891e4b0c8e15c550b64,Water Park,38.715293,20.716482,Xspot Wakeboarding
4e44c95fae605a14b7eb4f04,Harbor / Marina,38.721106079032026,20.72393111817724,Περιγιάλι
53cac84f498e5a7d7af67668,Greek,38.71478,20.715498,Anna Maria
4e4fbef7b61cf637a4f8e133,Pool,38.73681760838575,20.731456283027438,Pool Bar
4e3ed601fa76455375ca79e0,Hotel,38.716048,20.711285,Kyriakos Studios
57b8b70c498e47db41117583,Cocktail,38.740287,20.730764,Ionian Blue Bar
4e50ab24b0fb088f3c2dead2,Breakfast,38.73695487503917,20.73102558094371,"Breakfast Room ""Asterias"""
57b953f6498e8dbc13e234fd,Pool,38.740291,20.730704,Ionian Blue Spa Resort
51f7b90f498e910b7c4412bb,Beach,38.74032663784129,20.730683086594553,Ionian Blue Beach
52e2db1311d23324b15a78d3,Vacation Rental,38.71677445217506,20.718348026275635,Aχιλλέας (Achilleas Studios)
539b72d9498ed490cde251cb,Building,38.74243367655948,20.729302774101214,Villa Magemenou
4e50de7d7d8bd425e4a3f5a8,Beach,38.74030726378754,20.730653081964622,Resort's Private Beach
5393386d498e57e1567ea71c,Hotel,38.71712133153902,20.720601472122706,Perigiali Pension Beach
577e7d2f498e9fa46500a58a,Hotel,38.73551949959329,20.72987316258855,Apartments Aggeliki
5046748ee4b0a21d2f1847a4,Village,38.74410902637795,20.727731296972138,Βαυκερή
51eea1bb498e49a6b0cdc8f6,B & B,38.714837053721425,20.715706653026185,Sundys Studios
4e62464fae60e9edf5aae2e2,Hotel,38.717537829839806,20.71580559685701,"Hotel ""San Lazzaro"" Lefkada Greece"
50435c48e4b0047a423e768d,Hotel,38.715660888021496,20.71632941727123,HOTEL ARMENO BEACH
59b17cc79deb7d66c89ce532,Hotel,38.716644,20.716537,Studio Vagelis
4e64f78cc65b2dc8a0b1f901,Tavernas,38.745497071089346,20.726202268269887,Minas (Μηνάς)
559ea066498e965cccc3375c,Pool,38.734296,20.728541,Anastasia Village
4e459bd5c65bd6ffbe867ad1,Hotel,38.74344438423466,20.72848211357426,sunrise hotel
5213d2c311d21f2a1606e191,Scenic Lookout,38.74229856028596,20.729657811802337,Stefani
578e2f16498e990252fc3be5,Hotel,38.742426,20.724571,Ionian Heaven Villas
4e5d678a45dd2e4538bbb179,Vacation Rental,38.73514327,20.72983301,Jimmy's House
595a45e34febd5782b5b0e11,Vacation Rental,38.714276,20.715343,Aretousa Studios
4de8f77c1f6e9b537719e3a7,Resort,38.74030115164712,20.730718021915198,Ionian Blue
4e00b97f483bd352f71f1798,Resort,38.73680041036759,20.731008120051573,Porto Galini Resort & Spa
4de0a3587d8b84d5dc71b91a,Hotel,38.744434,20.727674,Andriatika
536297e7498e3315c02c891c,Pool,38.74419403076172,20.727659225463867,Vergina star hotel
4e13fe7a52b1695f992b7a9f,Boat / Ferry,38.706820213745395,20.711129501576117,Makedonia Palace
51f7eaf4498ed12928db2249,Rest Areas,38.74615497291535,20.712319286712578,Ithaka
5b311412031320002ba7dac1,Hotel,38.758366,20.715857,Crystal Waters
55b7e083498e391b7bf2d40b,Residential,38.74686,20.724798,Christianna Studios
4e573eb188770d2fe31ac2a4,Restaurant,38.74676309521398,20.724710574313963,Mamma Mia
4e318cc9b0fb3ee646740814,Hotel,38.746845213392874,20.724671318600024,Hotel Sofia
4e4951a552b1bac0d99b3fc8,Greek,38.74684288604019,20.724623270300647,"""Eleana"" Tavern Karia"
52015c00498e9a06f424c8ad,Greek,38.747996992318896,20.724367178563867,καφε ουζερί Το στέκι στη ΣΩΤΗΡΩ
503154bae4b09116a239b6ca,Water Park,38.755158,20.720674,5η Ήπειρος
4e6a97c162e1cd1d54c5f8db,Resort,38.75871658325195,20.70804786682129,Diodati Villas
4e26d8d1a809510950dad57f,Hotel,38.74684539706221,20.72467265163418,Tesoro Hotel
5048307ee4b06b582146b485,B & B,38.7487835127,20.722574537894957,Matina Studios
50201bb7e4b0c1d839e14aae,B & B,38.74687191347997,20.724634910835398,One Vision
51663baee4b02703dbbfbc3c,Travel,38.746162,20.725918,HLBR
4e1c5306c65be9fffd7aba59,Hotel,38.74684949278059,20.724664801363787,Aliki hotel (nikiana)
5b900c05c9a517002c42563c,Greek,38.74849,20.724405,Pantheon
500c53c6e4b02ee07bb07a1a,Pizza,38.75884553983513,20.719664412496055,Creperie Afroditi
53c2d1b7498e1c9f5c74fe18,Assisted Living,38.75838851928711,20.72021675109863,Lefkothea studios
557d4531498ec783b704f1e0,Bakery,38.75515111777391,20.720100930866746,Το Μπακάλικο με τα Καλούδια
5986aeaa16ef6778abd2fb8c,Supermarket,38.755135,20.719992,Αριστα
4e0b2660149563b079c4093c,Greek,38.76006018588858,20.72141604949304,Pantazis Tavern
5585a383498ebd72ba7ebaa9,Housing Development,38.749261,20.723507,Aristea apartments
53f22874498eae96daed0330,Entertainment,38.756390734572925,20.7200136271802,Padi Official Diving Center
5931e81b340a587e4360354a,Hotel,38.749336,20.718014,Rose Pearl
5931e9e2b6eedb402a6dc72a,Hotel,38.74931,20.718079,Rosaline Pearl
5931e754a795bd7b17072671,Hotel,38.749794,20.717995,Pearl Mansions
55c52871498e63aa77e940b9,Concert Hall,38.757506,20.718466,panigiri nikianas - leukada
501166ece4b0adaeafbad8cf,Beach Bar,38.76672449927335,20.7204354451819,Dim-Har Beach Bar
4e4185138877f7a2cf311ead,Village,38.75636158902189,20.719530546893463,Nikiana (Νικιάνα)
577ab14d498ecac8d47d8184,B & B,38.756704,20.719457,Studyo Katerina
4fef4d79e4b0d96619fa12ab,Beach Bar,38.75651810102915,20.719856504512958,NV
53a49173498ec347d30afe65,Greek,38.760439200831314,20.720263897764905,Ψησταριά Κοντσελήσ
4e6baa12d164c37bf51a8549,Hotel Bar,38.7587720528706,20.718220992855663,Summertime Inn
540466f0498ea342596ffa61,Residential,38.76005172729492,20.721603393554688,Villa Almi
5931e880340a587e4360cdd6,Hotel,38.749317,20.718025,Maroon Pearl
53eb931f498e796ff400e308,Recreation Center,38.757164001464844,20.72001075744629,Seafarer
57af5d8b498e10cab559f396,Residential,38.759632,20.718979,Villa Filoxenia
4fcbac11e4b07471e0cdf3ff,Greek,38.75305524019319,20.72152654959641,The Breath of Zorba (Η Ανάσα του Ζορμπά)
59327f84f427de60327e5df4,Real Estate,38.75904,20.719353,Euroterra
51e98626498ec126ac6cb440,Italian,38.758363,20.719429,La Favola Pizzeria
53ac1c60498e31ac087aa67e,Hotel,38.75888364825274,20.720386122952707,Nikiana Club Hotel & Apartments
57cc3087498e011eaf49c2b0,Hotel,38.758923,20.719229,Villa Giannis
5035144ee4b02273b20c46b9,Greek,38.76041900264808,20.720006251817434,Porto Nikiana
50002ae290e7a1840b3736f7,Hotel,38.750535675394005,20.722360610961914,Studios Fraxi
5b332c3a911fc4002c484588,Restaurant,38.753826,20.719007,Aqua Club
5202115f498e371d13e72e85,Health Food Store,38.75903490168087,20.71944548693418,Coop Ελληνική Διατροφή Σουνδιας Παναγιώτης
5773dd02498e87518e7fce5e,Pizza,38.760369,20.720325,Pizza Katerina
53933119498e4754a4a8b101,Nudist Beach,38.762647844487,20.718768095261435,Λιμνι beach Νικιανα
5210f32011d2e6fde6414487,Greek,38.757123,20.719923,Το Λευκό Ακρογιάλη
5b1586a5872f7d002ccb2197,Grilled Meat Restaurants,38.75672,20.719648,Ψητοπωλείο Σκαροι (Μήτσος Καραγιάννης)
5af0766ad69ed0002cfb6723,Hotel,38.751898,20.721267,Lefkas Blue Hotel
522c305a11d20c34e9e8cade,Beach,38.75874119694129,20.708186945378767,St. Nicholas Beach
4eaad78ab8f7a50de8fa7b44,B & B,38.76109018482485,20.71912312993192,Villa Galanos
5b31efad82a7500039a8ab83,Pool,38.75375,20.718939,Crystal Waters Pool
57b47a8d498e4f28cabba518,Bakery,38.75595,20.71956,ΠΡΑΤΗΡΙΟ ΑΡΤΟΥ
520720f911d220fd060f8891,B & B,38.76061737402564,20.719111489449293,Hotel Pegasos
4f3ddfaee4b01701e8c3e3ae,B & B,38.75527865648288,20.71980991860238,Pansion Porto Fino
4fd4e868e4b0b3abb3f0e499,Beach,38.76150363403261,20.719070747760963,Nikiana Beach
53e14e75498e17de4b5b8983,Residential,38.75999450683594,20.71956443786621,Pantazis studios
521ba67111d2aaa45e2eeba3,Café,38.75927498460359,20.718558566651666,matsoucafe
57659c25498e2c1f9215aa63,Pool,38.759014,20.71752,Ionio Fos
53938e8e498ecd20b1a1527a,Hotel,38.761749267578125,20.718225479125977,villa katopodi
4f6b7a83e4b0952430d5960c,Souvlaki,38.76017072242557,20.719699333959998,Ο Σπύρος
4f3eb156e4b08df9257b319d,Bar,38.760292794892564,20.7199505556828,Λιτρουβιό Καφέ
50320adae4b0beacbf711fa5,Boat / Ferry,38.76036718811137,20.720834282078656,Νικολής
4f688fa2e4b0b4f792124897,Vacation Rental,38.75799744437625,20.719006725110603,Villa Theodora
5b2e092d6fd626002cd99712,Hotel,38.760054,20.721227,Vaso Studios
4e0b427318388f71c35d7ab5,B & B,38.75870291664617,20.718512004743243,"Hotel ""Eleana"""
55b8fe71498e5a4926ccb00c,Pool,38.751885096527566,20.721451228675086,Lydia Beach Hotel
51fcfc23498e8426661d5a5c,Café,38.759835366965696,20.71837813926638,Center Cafe
4faf7a0fe4b0df0ef7c80b95,Resort,38.76032144763286,20.72079354033318,Villa Levada
5babc675628c83002cfb194a,Café,38.755942,20.71945,Revival
513cbfd090e704f76751a076,Beach,38.75517931479087,20.72072982788086,Nikiana Fraxi Beach
5931ca66cad1b60cd23b2f90,Café,38.76018,20.720541,Apico
502b7ab3e4b0daff2964c583,Vacation Rental,38.75744,20.719976,Villa Mare
552976f6498e4b2863bda1e9,Resort,38.759005,20.717233,Villa Galini
4f4a4519e4b037cdb7647a23,Café,38.759956,20.719514,Pepe Le Pew
53dc00b1498e411c7510e084,Fish Tavernas,38.76876523286169,20.72056655063312,Ταβέρνα Πανταζής
4c5d58187f661b8d69fa4a1c,Hotel,38.769909739494324,20.721786618232727,Ducato Hotel
55906a99498eba5b2647d64f,Residential,38.764896,20.728895,my greek apartment😎
50ce4d2ee4b0b0b989ae40c6,Trail,38.76835441118429,20.721730600820532,Skiroute
4e11dcd2483bee47ff3532a5,Professional,38.76785132502325,20.721631656511764,Chris Voro Studio
509fefcae4b0b72b99e1c10c,Emergency Room,38.768144,20.721732,Kardia Kommatia
50a40f83e4b0f010d74071a2,Bridal,38.76813947068877,20.721701499552424,Ντουλαποχωριο!
50ce4c70e4b0c28fd3a204a3,Chairlift,38.76834939817649,20.72167821853843,Skiing
50bcdb3ae4b0e5071ded5e19,Music School,38.768506768504494,20.721992512264478,Χελοουντιαρ
597c44cf1f8ed62aa5d3f165,Hotel,38.75902,20.713842,Villa Diana
503614efe4b05566b671850f,Hotel,38.766166,20.717559,Aleka's House
5995ddf7a9fe1257eb0fa4ec,Vacation Rental,38.793279,20.714341,Alegria
5048db7ee4b0dd27997fe88f,Beach Bar,38.76784655622407,20.721614195752228,K Beach Bar Swimming Pool
5046279ee4b06002d9be457c,Hookah Bar,38.76781407307463,20.721660757778224,K Beach Bar Pyramid
50ca487e498e9af64c084229,Yoga Studio,38.768023,20.72165,Τσοπρρ
50462966e4b0098497fd1222,Beach Bar,38.76776332539663,20.721602555246,K Beach Bar Dock
50ce4b6be4b02eda4ec881ce,Sake Bar,38.768124,20.721774,Grounder
509fbf67e4b0383a0ebad41f,Jazz Club,38.768295766723256,20.72181790462899,Swingey
50ca5eeae4b0e9d6282db4d1,Track,38.768023,20.72165,Γκουχου
50a41072e4b0969a0297825d,Beer Bar,38.76819284670356,20.721730600820532,Κρειζιφοργιου
50a41143e4b07d69fc1f4d53,Recycling,38.768205,20.721735,Τσιριμπιμ Τσιριμπομ
50a412aee4b0bf9eb7671483,Trade School,38.768268,20.721793,Αλαλουμμμμ
4c7a1952a86837043cd9124d,Travel,38.76989070582798,20.720846388201267,Episkopos Camping
520cad8b498ed54c55b6f125,Hotel,38.769316,20.723166,Mediterraneo Home
55f893d6498e46eab1c75564,Island,38.768423,20.711857,Nikiana
4fdedf3ce4b070b1a626a149,Hotel,38.76870134302933,20.72022315603834,philippos hotel apartments
521651e411d2ded2c9c9f8ef,Hotel,38.767506174325554,20.719006725110603,La Casa Di Nonna
50ce4e6ae4b0956d3dd225d3,Rock Climbing,38.768265,20.721667,Dreamx
50ce4ca9e4b00957d541f082,Apres Ski Bar,38.768290647484534,20.72167821853843,Apres
509fe63ce4b029db3e715c6c,Cemetery,38.768334,20.721739,Psixoula Mauri
50ce4a79e4b0956d3db69460,Metro,38.768129,20.721772,Victoria Station
59a58e6415173e2a7a4e6d8e,Village,38.769714,20.721588,Episkopos
57818d71498e545abcaf44ad,Hotel,38.771996,20.721357,Aurora Studios
5401ae64498ed729c01b3823,Beach Bar,38.767877124014085,20.721637476765004,K Beach Bar Beach
5538a5cf498edbace443cbb6,Beach Bar,38.76776254317063,20.721491351154857,Pavezzo by the sea
50ca5f69e4b00d249348b65c,Pool,38.76826198529984,20.721753881835518,Τσιμπα
5034bdfde4b05cd3b118202c,Resort,38.770277,20.723056,Agnadi Suites
50a40e5ce4b0ab9603e3d75f,Skate Park,38.768124,20.72177,Ομαιγκοντ
4f927f91e4b0b65a8a6f4fe1,Resort,38.768110574326954,20.721665769666895,Villa Leucadia
5034f78fe4b082303e174121,Resort,38.76923870928215,20.72328460953651,Agni Studios
59a5a51efd16bb397f4c91fd,Vacation Rental,38.770156,20.722935,Zois Apartments
502b6ef0e4b09e0399496479,Resort,38.77065458283291,20.722079816091515,Dukato Hotel
52049d82498e74103f329bae,B & B,38.76678466796875,20.719398498535156,Ionion Hotel
50ca48e6e4b09d952ae20011,Climbing Gym,38.76824539230211,20.721631656511768,Σγουετ
509fbfb0e4b083e9a5fe8d45,Rock Club,38.768303,20.721872,Highway
55aab82a498ee308cf9519a3,Hotel,38.76923692263904,20.72056073038495,Hotel Philippos
51ece7e5498e58679d6f98a2,Hotel,38.77040588513527,20.72154435271652,Villa Thomais
50a948c5e4b0d062c63ed722,Lighthouse,38.768213,20.721814,Tsiou
5020b7d8e4b043fad4ad02c5,Resort,38.765709,20.717616,Katsenos Studios
4f690868e4b09de792308a12,Beach,38.766716100425235,20.720292998998996,Episkopos Beach
5a5e741a86bc496aa2ecc167,Modern Greek Restaurants,38.77035981536438,20.721614956855774,Vivarium Brunch + Dinner
4e96eaf1b634527c678d04a4,Professional,38.778436366691444,20.719227894280543,Little Scholars Academy
50c15649e4b0fe2a3afed7aa,Hotel,38.7786,20.7189,anthias garden
4ff7de59e4b0fb4a8391b943,B & B,38.772495939391725,20.722103097113106,Florena Hotel
50294bdae4b063baa21b38ec,Greek,38.781517,20.720567,Paradeisos
5022a50be4b01d9e0f5680a2,Hotel,38.77888531749356,20.72062475311632,Saint George Houses
593c243362420b7fecfc1c7d,Resort,38.780983,20.71715,Thea Resort
539736ab498e5a21877e2fdb,Athletics & Sports,38.77736282348633,20.711488723754883,swimming pool casa sunshine
51839148498e65ab0a2be8cf,Resort,38.781138793982365,20.717673890694048,Thealos Villas
501f98cbe4b0a0a8014fca74,Beach,38.785577591035526,20.72164911727156,Ligia beach (Παραλία Λυγιάς (Λίμνη))
4e4632a6227128e1e8c8039e,Village,38.79251725415959,20.718186071433795,Lygia (Λυγιά)
4fef18eae4b0430e0aef5645,Hotel,38.7848689219317,20.722371162195124,Hotel Porto Ligia
5b92790d73fe25002c351aef,Bathing Area,38.785538,20.721827,Vive Lygia
501e31d3e4b071e497a37c82,Beach,38.78563522359266,20.721753881835514,Το Άλλο
4df3481e483bdb5e13739798,Hotel,38.78394640942317,20.720633268356323,Paradise INN
5037680bfe702ac0373b16aa,Greek,38.784129553963204,20.72139457656512,Λίμνη
5a5a5b3664c8e13cbe391ab9,Theme Restaurant,38.78776,20.72003,Το Πουγκί
4df1142ed16486e86e533e78,Village,38.787583048754655,20.72051416840059,Καλλιγόνι
4ff03661e4b00b9a29144847,Pool,38.78492207922727,20.72238246940649,Poool!
4e399eb218380f8ec55290fd,Nightlife,38.786944249084506,20.72134064388504,Giovanni Cafe
535272c7498eafd44016f4a6,Meze Restaurants,38.78701814773472,20.721474509684786,Στο Λιμάνι
58a9d3ea5cab2f66491ea0e0,Island,38.780632,20.709192,Lefkada City
51bcc699498e1757ee532c54,Pool,38.783806499809224,20.720869203575848,Alkyon Pool
53b437e1498e88062f12637c,Residential,38.78647232055664,20.72140121459961,Natasha
5b64f56ae97dfb002c8f9a98,B & B,38.787285,20.720723,Katina Rooms
57bbaffb498ebd714d3bb859,Harbor / Marina,38.787257,20.721451,λιμάνι Λυγιάς
4e5295e418a86770c5869263,Greek,38.787818492046206,20.720289538056697,Μάκης
59fd8a930457b7018ef58f89,Distributor,38.80097,20.715883,Porcelana Λευκάδας
51470944e4b0c4e4012902c3,Fish Tavernas,38.78763773370691,20.72049771719919,Xouras (Ξούρας)
57b96bb1498e486945d7d943,Hotel,38.79153,20.714315,Summer House Louisa
4c77b7cf5cd6b1f793cf3f94,Beach,38.78864810296263,20.716067507036076,Lefkada Beach
4efe0bc7be7bbcd4f1deec6e,Greek,38.7888415120125,20.71986710250932,Γιάννης
56916894498ea42fe8dc7cb1,Greek,38.787870179991785,20.720147492835444,Παρεάκη
4e46cab262845e1d3c96adcf,BBQ,38.78940853171904,20.718337397602404,Thalassa
505b6b13e4b0e0a792055c08,BBQ,38.78933093029228,20.718413060693717,Psistiri
502aab98e4b06b23dfcb4df4,Italian,38.78974823947702,20.719007068866944,Georgio's Pizza
50478377e4b03314a465c3c9,Greek,38.78948350285428,20.718308296414683,"Bill""s"
504f86fae4b0cefb00ac2792,Bar,38.78948814545099,20.71843634164583,Art Club
5690ee74498edca58b5a8b5c,Church,38.782219,20.707185,Άγιοι Βάρβαροι
5690ec28498e732a5076df73,Church,38.781309,20.706465,ναος Κοίμησης Κατούνας
4c84924074d7b60c7a6694d8,Hotel Bar,38.791157020312006,20.716760114224286,Villa Kazazis
51e31c08498ed6f7b55cf25d,Residential,38.79162482138388,20.714024609128096,Βίλλα Λουίζα
50252235e4b079f4a299a862,Hotel,38.789443501360395,20.71841306069372,Aris Villas
50521549e4b01a360457151f,Pizza,38.80012753530054,20.715741190019504,Nirikos
517cd284498ee0b8cd5cf72a,Church,38.79978560457545,20.715060608210035,Ταξιάρχες
4feff5c5e4b0e1983314686c,Hotel,38.787734871242115,20.716652870178223,Gea Villas Lefkada
4df53a18ae609e69dd9fbc89,Other Outdoors,38.794281,20.718151,Thealos Village
4e4187c8483b54a27a1ed0a2,Greek,38.79173253160762,20.72015870238893,Τα Κανιόρια
502a5680e4b011d233b00f4c,Furniture / Home,38.802519,20.715521,Georgakis Palacio
538f7536498ef51ceb645461,Residential,38.788808292633334,20.713238880073753,rema robi
4e469eb3fa76a07fde5ba1a2,Travel,38.78945888410072,20.71832866724726,Ligia port
501e79ace4b0ccb681bfb2df,Other Outdoors,38.78943789807797,20.718337397602408,limni
4e4a3b1caeb7de71b3939024,Hotel,38.787517,20.710827,Harmony Villas
5797c5bf498e645445d14822,Housing Development,38.798477,20.718967,Faros Appartments
4c694fc41226c9b628ccdaaf,Hotel,38.79615871311928,20.718605128561855,Alkyon Hotel
51bdede1498edfddf69172aa,Residential,38.799147623040994,20.717976542923477,Thanassis Studios
55ca43b5498e1f519c322a31,Trailer Park,38.79628856140954,20.71765642999078,The Red House
5b8ade52db2aeb002c1ce4ef,Greek,38.791515,20.718674,Σ´Αναμμένα Κάρβουνα
4f9d9dd9e4b087d95e508d4c,Greek,38.794141,20.717967,Το Κουτούκι
5182c8e3498e8f59cb166957,Wine Bar,38.800156,20.715536,Βωλκος
504f4acee4b0d66162b675c8,Tavernas,38.799745493761506,20.71538072046364,Ταβέρνα Συντριβάνι
59593452840fc216ec6fc456,Tavernas,38.799739,20.71572,Sindrivani Taverna
59aa8035a92d9826fcec1763,Bakery,38.791091,20.718306,Σταχυ Και Μέλι
51755d15e4b0f15947121dfd,Housing Development,38.80030614193909,20.715456383372196,Langolo Di Cafe
4db57e381e7248d135b53a9f,Café,38.789179676369024,20.71974791629158,Seagull
4db6c90b4b226b343dbb25b1,Bakery,38.794393665964655,20.71772571673246,Ο Φούρνος Του Καλού
53b71138498e3c01b54e7407,Greek,38.79385656499615,20.7182093523816,Δαφνη
5413f6c8498e6856c6128623,Bike Shop,38.79624938964844,20.717870712280273,Bikeland
4e4e0657d164978659b68dce,Plaza,38.78061066015432,20.706667876960612,Κατούνα
5050275ee4b0ab03b9841dc2,Elementary School,38.79519988065654,20.71488600156161,Δημοτικό Σχολείο Λυγιάς
59b3b24ea6fe4d32cdaa5144,Hotel,38.790646,20.717428,Polyxenis Rooms
51730931e4b01640009d5d5c,Bakery,38.80027332843442,20.715369080016583,Φουρνος Κατσαϊτη
55d99051498e561ffd7df677,Gas Station,38.79450455597057,20.7176156883508,Shell
4e4d67bd1f6e6e196632ee0c,Greek,38.79212413022883,20.720453097090818,seven islands
5041fa14e4b00fd08edad9f2,Grocery Store,38.792086,20.718235,Super Market Mhtsou
5038f4e7e4b047310d08996c,Village,38.80010737114182,20.714920922889295,Καριώτες
50279fb4e4b02a96b29565fb,Other Outdoors,38.797566536410834,20.726922278041926,Levkas Canal
53bceb8f498e9424896cbf99,B & B,38.79452133178711,20.71907615661621,Avra hotel Lygia
53bb02a2498e617a4c424148,Resort,38.78648212682105,20.713908204791814,Esperides Villas
50235fcce4b03bca04e2584c,Hotel,38.7926384703988,20.717093914413912,Thalero Holiday Center
51ecdb74498edbbbb848d7ea,Hardware,38.800797,20.715766,Βερύκιος - Μπάλτσας
540b8bf1498e9f07aba26dc2,Bathing Area,38.80056759421595,20.71692890090939,Mpempekas' Resort
5569dbe1498eddb8be626c15,Greek,38.780596,20.706696,Tramezzo
53ba97ea498e69be2efc70d3,Resort,38.78110251734489,20.705847231596625,Pavezzo luxury retreat
5138a518e4b0e3c7b406a6df,School,38.79621305908171,20.717347957607497,Little Scholars Academy
4e18840a7d8b8af9138e16f5,Hotel,38.79584175707968,20.716458786660926,Hotel Konaki
51c05737498e75c96381056b,Café,38.791714,20.718486,L angolo Di Cafe
5232107611d217520fca7810,Tavernas,38.780439,20.706549,Κολλόκας
5930722b46e1b6531ca4f834,Hotel,38.79933,20.715174,Regalo
503c6e9be4b02dbf2026a776,B & B,38.799524691843416,20.71813368930286,Villa Olga
59862aa41fa7635deb5fc165,Vacation Rental,38.781223,20.709692,Traditional Stone House
53f5e85d498e07b7674261c5,Resort,38.800724530407145,20.715072248654153,Anthemis Luxury Villas
50156d3ee4b0073bd0d8472d,Pool,38.802003758028214,20.71625375430865,Anesis Pool Studios
53d00d5d498ea89d0b988bd9,Resort,38.79585124003716,20.716498203896933,Konaki swimming pool
55633405498e4cb51a3e2550,Pool,38.794794,20.71707,christina apartments
50381566e4b06e698f663122,Vacation Rental,38.8032112121582,20.71372413635254,Villas to let
502bc4fae4b0d7ad1da19f28,B & B,38.79715804452229,20.720130032096975,Matina's Residence
597f67b81499465b3af93af0,Resort,38.779761,20.70545,Pavezzo Country Retreat
4e18bd6cae6092c27655746b,Outdoor Event Space,38.79112907150465,20.70639432844411,Κτήμα Γαζής
50388106e4b0fc35e3dc7362,B & B,38.803343094006046,20.713663755721768,Άρτεμις  Πανσιόν
4e21d544628469a57419f33e,Campground,38.80297833034979,20.718308296414687,Kariotes Camping
510e59e8e4b0c180c80e65bb,Mountain,38.8015365854961,20.701581048723547,Xilomazema
5a0c2252646e38782594a9e6,Art Gallery,38.810661,20.708869,Wood And Dreams
55db72b5498ee07605742b7b,Pizza,38.79938656275448,20.741641848573998,Αιγλη Food & Coffee
4d4aee5a48a06dcb7c7d80a2,Garden Center,38.8046216022645,20.714761912822723,Garden Centre - Landscaping and Gardening
4e26fdcdd22d2d9597d317b3,Resort,38.80306185494056,20.709706015700164,Horizon vilas Kariotes Lefkada
510e5964e4b0898fb77718c3,Well,38.801901,20.702183,Elies
4e3e520a1495bf24a5e6d92a,Bakery,38.8118888,20.7101312,Artopoieio Katsaitis
504282bee4b03ccc1711f598,Hotel,38.818287690297325,20.712808184362498,porto nirikos
4e4ffb3852b1e893ad62ea66,Tavernas,38.799521638519316,20.740479935756554,Ταβέρνα Κολοκύθας
5b38022ade3bbf003965465d,Tavernas,38.79954,20.740682,Ο Νίκος
52ed445911d2b55c3ebaa530,Tavernas,38.799539,20.740554,Ταβέρνα - Κρεοπωλείο Πανταζής
502ad412e4b0dc69168d9925,Piano Bar,38.79919680517652,20.741636028227195,Πανηγύρι (κλαρίνα) @ Πλαγιά
55bbcdf2498e089b9e530c35,Bar,38.79902412086937,20.740029613540397,Moraitis Cafe
4e4eafa5fa7626401e9ee3d0,Village,38.79899318469063,20.73968039322798,Plagia (Πλαγιά)
501d788fe4b087a0ae12145c,Travel,38.79940492608462,20.740268247476372,Πλαγιά
4defbd85183822e7cf4094fa,Island,38.832321536601555,20.709533808986322,Lefkada (Λευκάδα)
50376adbe4b0916c77e1b4e7,Furniture / Home,38.81572596942791,20.712371668594255,Profi
54478179498e6f6f9972967a,Student Center,38.817551978521266,20.71245897173539,Master ΚΕΚ
50225152e4b0f661ab264312,Supermarket,38.81621995774182,20.71121710675346,Lidl
500acf41e4b02a36e9f8e472,Beach,38.83205478997392,20.717417800404455,NV
5059c893e4b0badb911d854d,Motorcycle Shop,38.81991958618164,20.69879531860352,Coyote
57893b93cd108caad60b3346,Gas Station,38.815338,20.712845,Shell
5024fe5be4b0306952d3393b,Hardware,38.815276312145286,20.707866835017327,Κοντογεωργης Πανος
503761b3e4b047310c3af31c,Liquor Store,38.81632061764915,20.704648275541285,Καβα Φιλιππας
4e9c54c01e176b6f1cb14aa2,Supermarket,38.82462846418289,20.711405126239274,ΑΒ Λευκάδα
52d1802a498eb608a3c067ea,Martial Arts,38.821109771728516,20.710651397705078,TAEKWON DO ΕΥΚΛΕΑΣ ΛΕΥΚΑΔΑΣ
4db33993a86e8d27076be810,Church,38.818629,20.709846,Αγια Τριαδα Καλιγονιου Λευκαδας
51f8fde2498ecf91542eac5a,Village,38.81565178989178,20.690703224013816,Απόλπαινα
4f968627e4b0f1235110c5a1,College Bookstore,38.82604981142142,20.71193515298245,Τ.Ε.Ι. Ε.Π.Δ.Ο (Βιβλιοθήκη)
51d6aafb498e25271617e767,Department Store,38.82298161715123,20.70953723001501,Ionian Mare Service
502f6159e4b01a9d9ebfffef,Hardware,38.823692321777344,20.708749771118164,Οίκος Decorcenter
5273e279498edca3d88c8ad0,Factory,38.82286610307816,20.710427720273643,Πολυχρονοπουλος
55cf4365498ec858e1f93e50,Church,38.82607526617039,20.70942082610788,Παναγία Φανερωμένης Μοναστήρι
5677fd27498e6700ece11a39,Lawyer,38.82645896580861,20.706097499272744,Therianos-Tzefriou Law Firm (Δικηγορική Εταιρεία Θεριανός-Τζεφριού & Συνεργάτες)
57399a0d498eb703abf7df9a,Toys & Games,38.826555,20.706602,Little People
504daa39e4b04a78b07e1e08,Gas Station,38.82349322930983,20.709604994161005,Κοντογιώργης
503b451fe4b031fd8aba0de0,Furniture / Home,38.826493261925776,20.70662713568828,Παρουσιαση
5639d673cd104e8bcfd334eb,Auto Garage,38.820827,20.711113,Ζαβιτσάνος Ελαστικα´
504db3c9e4b084386bd0c71e,Car Washes,38.823612,20.70991,Πλυντήριο Αυτοκινήτων Κοντογιώργης
50fee3aae4b0aae3c0c986fb,Gas Station,38.81993865966797,20.702438354492188,AEGEAN
51e66360498e6e27466d6ec3,Dentist's Office,38.82900331487141,20.707657308281068,Ioanna Kaklamani dentist
50252ceee4b02738499ad592,Arts & Crafts,38.826509636077354,20.706417609166508,Μπουκέτο Μπαλονια
508a4261e4b0e1fc29f9fb79,Electronics,38.8232641259811,20.702104862997427,Κωτσόβολος
52400510498ed45f2fd4096d,Electronics,38.824971,20.702942,Douvitsas Electronics
525c28bd11d2a55807c7d797,Academic Building,38.826207360319415,20.71171889997502,ΤΕΙ Ιονίων Νήσων - Τμήμα Διοίκησης Επιχειρήσεων
4e4628931f6e29f10da27416,Bakery,38.82590342974008,20.7056900868032,Ξυλόφουρνος
52931811498e2f2a6e6f4858,Salon / Barbershop,38.828182220458984,20.707910537719727,Ο κουρεας της Σεβίλλης
51f2f51c498e4976a74ac486,Hotel,38.81278105033302,20.702512274256843,Irida Hotel
5028d607e4b004413ad00e33,Mall,38.826479922501655,20.70661060738206,The City
566ff5bb498e0b21cea0a14e,Mental Health,38.827513,20.705528,Ακτινοδιάγνωση Ασημάκης Αλέξανδρος
5034900ce4b05ce703807501,Snacks,38.82947540283203,20.70665740966797,Oreksis
523aae5c11d22a9a8b6ee008,Middle School,38.82524,20.710434,Μουσικό Σχολείο Λευκάδας
4f548033e4b0d3a8f6f2562b,Technology,38.826127439349186,20.71188147774182,Τ.Ε.Ι. Ε.Π.Δ.Ο. (Θεωρία)
52ceeed2498eaa5a2d84e62c,Electronics,38.824899816185784,20.70296624696531,Terabyte Computers &  Electronics
5729c833498e466375aeacd4,Kids Store,38.826496,20.706521,Romeo + Juliet
4f894d90e4b005c390fcbdb6,Electronics,38.826599044712005,20.706347974627402,Hardcore IT Services - Computers
515b0a1ce4b01aae7c1f5b2c,Sausage Shop,38.82164967063208,20.713809261114708,Ντελημάρη Αλλαντοποιία
51081702e4b0ef2ec3f81389,Driving School,38.826534578647305,20.709787498453114,"ΣΧΟΛΗ ΟΔΗΓΩΝ ""EPI TROXON"""
507840efe4b02a5a81c3d908,Wine Bar,38.82653844446492,20.70656681029578,Bar Rouge
50560150e4b0d505c38edd71,Bakery,38.818329331077514,20.702698519449886,Tulip
4f9960c9e4b0eee8ce77d8d6,Bus Station,38.82594591072226,20.711774031987822,Σταθμός ΚΤΕΛ Λευκάδας
535e08b411d2edf10c0f251f,Office,38.82590730357442,20.703658846683208,OiKo construction & consulting mananagement
5461190d498e026328c4169c,Entertainment,38.82264969679779,20.7004170178201,workclock strawberry
521e6b5a498e4bec187404e7,B & B,38.82639723838212,20.709362624158505,Leykada
533ecd94498eb1857883b4cb,Coworking Space,38.82659486409892,20.706103319451877,Criterion Lefkas
55c12070498e5236c51686ae,B & B,38.814806387461665,20.7066445962334,avra appartments
579d0ca8498e29c79e142fe5,Resort,38.812347,20.700733,Gatsoulis Villas
4e98458430f87b6eacc0dc8d,Bar,38.82654434487024,20.706476539930218,PA CAFE
56010510498ed76a1692d17b,Health & Beauty,38.827811,20.703749,Beautopia
5037ecfae4b0133c7182cc48,Boat / Ferry,38.832549,20.712853,Oceanos I @ Lefkas Marine
55a9edb2498e5e476b86f9d6,Pie Shop,38.829483,20.706569,Orexis
5057293ee4b0e5434e0204b8,Bakery,38.82427234796037,20.70921916423457,Αρχονταρίκι
502586d1e4b056f765d684ce,Gas Station,38.821215,20.702122,Ελίν
50e0a9f5e4b0b76a31c6e8d8,Harbor / Marina,38.828669,20.71089,Καρνάγιο
4fc51376e4b06b77218cb580,Bowling Alley,38.826624441044046,20.70638268808307,Central bowling
54d9daf2498ef1d98f716368,Café,38.82117401825768,20.710451001073473,Bar Barbarosa
5354f4b5498eebb09db331ef,Hotel,38.824398341417286,20.70408953914528,Katerina's Village Saint Nikita's P.C .
507e922fe4b0388f2009db45,Gas Station,38.82173405729203,20.71063724748816,Jetoil
5aed42e367f62b0039a44836,Café,38.820276,20.701945,Stop Cafe
516d77c6e4b0ad66571d4990,Dance Studio,38.8276481628418,20.704151153564453,Σχολή Χορού-Χρυσούλα Κουνιάκη
57bacc45cd10d4fae1989f66,Hotel,38.824631,20.709153,Lefkadio Suites
4f8d61b9e4b0ca2acc91a0e4,Café,38.83039,20.712267,Porto cafe
513f1063e4b0c0d71eee254d,High School,38.82858118227053,20.708873727893906,1ο Γενικό Λύκειο Λευκάδας
58740023cc05d10fb6585c31,Gas Station,38.81780433,20.70260407,BP
506bffefe4b074490372572e,Café,38.82608224578327,20.71190150934911,Momento
4fea5af5e4b0a020d83af8f8,Harbor / Marina,38.81861439407162,20.700626543299585,skalakia
52d6ac1d498efb198e28fa3b,Gym / Fitness,38.82656078617847,20.70673771914495,melekos health club
532ef6ba498e0d3341c74fd0,Basketball Court,38.82621067520681,20.703315456857393,Κλειστό Γυμναστήριο Λευκάδας
55acca83498e243bf41956b0,Vacation Rental,38.81857736376132,20.701307501360002,Alexandros
51863ab2498e46caf7747119,Soccer Field,38.82353088348784,20.697408003160614,5x5 Lefkada Soccer Club
50157937e4b0d8233ef1b2e1,Hotel,38.821304,20.695683,Villa Vita Holidays
57e534db498e98fb759f3815,Pharmacy,38.83024,20.703962,Pharmacy Aravani Christiana (Φαρμακείο Αραβανή Χριστιάνα)
538d99e1498e1f53009d2921,IT Services,38.82946,20.703941,PC Tech
5264fa5e11d230d509e354af,Bakery,38.831065284205785,20.70642342935003,Οι Πίτες της Μαμάς
52625c18498edab2cca8ba6a,Furniture / Home,38.830019685486796,20.706126600168684,Ξυλουργειο Κοντογιαννης
51972c2e498e284715ef2f88,Government,38.83102884869012,20.706454082301423,Διοικητήριο Λευκαδας
596f9ef3e075506cb487f283,Pet Store,38.82939,20.703909,Pet Shop Marinos
59c63a07a5a315336af1d978,Garden Center,38.829297,20.70502,Σκλαβενίτη Δήμητρα
5028c477e4b041e2a77f4ebc,Convenience Store,38.8317321328381,20.708160051515783,Marina Market
50535b23e4b0e7a976d22f83,Pet Service,38.831775459268385,20.708035620470095,Lefkas Vet Clinic
5028ca36e4b0f23b026bdb20,Sausage Shop,38.831876432066835,20.7084546741096,Σαλάμι Λευκάδας Ιώβ Μαλακάσης
59118e990f013c59e65576f3,Bagels,38.830289,20.704171,Zimis
554f9f66498ea1262ec0c158,Italian,38.832553,20.709656,Napul' e'
59651a9f135b3919fcdcdb79,Art Gallery,38.83309,20.706357,"Art Hall ""Theodoros Stamos"" (Αίθουσα Τέχνης ""Θεόδωρος Στάμος"")"
5960a26909e2831d7017a926,Shop,38.8284,20.703352,Bazaar
5005342de4b04fafc14a3ede,Electronics,38.83104264707477,20.704083718975845,E-Shop
4dee1d4f2271e7b4462d7dba,Souvlaki,38.83201945182438,20.708794214442246,Daltons
502f7ca9e4b0adcbeca6eb01,Office,38.83234873373105,20.709275321239666,Marine Point
4e49227262e148603b94dcd1,Sandwiches,38.8318799754996,20.70819953002295,Taste & coffee
551ed36c498e1c395032dceb,Nail Salon,38.828316103993515,20.703798530708113,Κέντρο Αισθητικής & Δίαιτας Κολυβά Ελευθερία
4e54d6d5b61c93816c0d2c73,City,38.83383723460401,20.709508129037175,Lefkas (Λευκάδα)
53d1693a498e76c12381a9c5,Souvlaki,38.831805,20.707802,Souvlaki meating point
5264f9d511d2cc4c14898694,Farmer's Market,38.831282,20.706814,Φρουτοχωριο Πετουσης
50d34ebce4b0ec19a5d49617,Arts & Crafts,38.82939728065831,20.70556479983922,Color Graphics
51ca9d8f498e73d88b7a95a2,Gym,38.82810642524263,20.703641760988422,Physical Fitness
568412a8498e725d8213eb84,Optical,38.831162175530125,20.706549922798622,i-wear
51801c9ae4b0052439af9915,Pharmacy,38.832542,20.706429,Φαρμακείο Πρωϊμάκη
59b673c42a7ab605018caffc,Hotel,38.833927,20.70977,The Secret Boutique Hotel
5026a075e4b0dd4acc4d9415,Plaza,38.83326487751028,20.710947876075192,Πλατεία Λιμενικού Ταμείου
556b5f3f498e2c0de7f63ae8,Burgers,38.83196521001849,20.707554651583745,West Burger
4dceebd11f6eb1227087c011,Café,38.83238779956136,20.70958875306195,Cafezinho
578b75ee498e578df023db2d,Waterfront,38.83228102139708,20.709513550590945,Ανατολική Παραλία
50e6ec3de4b0889f365b104a,Desserts,38.8303682740572,20.70430442317197,Σταύρακας
525d0f0e498e04da31e853cc,Parking,38.83169748705865,20.708261472196217,Parking Λιμενικου Ταμειου
524a9b7e11d2165de045e451,Apparel,38.82889,20.704556,Ο Δάσκαλος
5a34edd0dd8442139c1fda0e,Bakery,38.828905,20.703927,Ο Φούρνος του Σάκη
51764ecd498ef6543bdf7fb1,City Hall,38.8302567564088,20.708099642544536,Δημαρχείο Λευκάδας
5b76d722037be1002c8dcac1,Cheese Shop,38.829475,20.704824,Τυροκομικα Μοναστηρακι
501beb8ae4b06599d2c47d90,Massage Studio,38.82878494262695,20.703947067260742,Massage
5a7ed8efc0f163521e69c22a,Bank,38.829231,20.706368,Piraeus Bank
51e2d269498efac3e1c76a79,Greek,38.83207702636719,20.709054946899414,Kaipo's
538313fb498e31b1646e4580,Doctor's Office,38.830627811173635,20.707628207348346,ΒΙΟΛΗΨΙΣ
4ff135bae4b03357dccf21f0,Bank,38.832554,20.70626,Εθνική Τράπεζα
541fee42498edf196500dba8,Pedestrian Street/Plaza,38.833927154541016,20.708606719970703,St. Spiridion sq.
5034e4fbe4b01a8b0517b43a,Mall,38.829366507385984,20.705583094616816,Εμπορικό Κέντρο In Center
505d75e5e4b0fa2eba921745,Pharmacy,38.83099365234375,20.705888748168945,Α. Κολυβάς
52b56983498ee0c074ea1666,Bank,38.832524207736014,20.710061047735152,Τράπεζα Πειραιώς
51bac120e4b090ea9bf180db,Government,38.82905960083008,20.70575714111328,Πολεοδομια Λευκάδος
51308392e4b031600343d887,Government,38.83291009513894,20.71060814648398,Λιμεναρχειο Λευκαδας
5016516ee4b0260c42e56872,Bank,38.82996054950246,20.70390329373741,Eurobank
556aceef498e618f80b9141c,Pizza,38.83024304515739,20.70417969886578,Παρασκευαστήριο Ζύμης
50b0a8cae4b042e781260f14,Hardware,38.827166,20.702785,Μήτσουρα - Σταύρακας
502119d1e4b02a6248ba9acc,Bank,38.83033989741553,20.70433225125409,Alpha Bank
56dc3f2fcd10e273fe099a26,Café,38.83103459177994,20.70647895273513,To Go Cafe
55bd49f5498ed69c3fd4d0e5,Café,38.832012,20.708355,Ristretto
5026c027e4b0e6861ee81d16,Greek,38.83238422214118,20.709674385277165,Φρύνη (Στο Μόλο)
59e9ee96356b491e43210327,Museum,38.834095,20.707876,Angelos Sikelianos Museum (Μουσείο Άγγελου Σικελιανού)
51b1ffad498eb95cd415c216,Design,38.83233551282886,20.70952042558273,FNK
5728a7c5498e5338ecab9627,Steakhouse,38.826045,20.70272,ο βλάχος
51c2f4d6e4b0e1994feefa48,Market,38.8263581173902,20.702896404999034,Easy
56213519498efb1e8d39716d,Magirio,38.831974,20.708506,Επτάνησα
5250799b498efe8cdafdaea3,BBQ,38.833763122558594,20.711034774780273,Ψησταριά Καλογεράκης
4e1de486887794dc24964f6d,Greek,38.833785547861396,20.708688548665943,Nautilus
50354117e4b072ffdc13351f,Candy Store,38.83407974243164,20.710739135742188,Santa Maura
520c9aff11d22fa420840d9d,Antiques,38.834249,20.708935,Danai Vintage
4f576a12e4b0be1ce318edde,Track,38.830314513959884,20.69881647716846,"Δημοτικό Στάδιο ""Πλάτωνας Γρηγόρης"""
52f0bdfb498e40662d101a98,Auto Dealer,38.826763,20.702864,Θεριανός
4e47ecbfd164155c0df8ad34,Italian,38.83183052312999,20.708412194659125,Festino
568d07ab498e246c440f29be,Restaurant,38.83304367175802,20.71049174247425,Μαζί Τα Φάγαμε
5b63346366fc650039a2d901,Supermarket,38.82656,20.702826,Σκλαβενίτης
501d1cc7e4b047a4fa09555f,Neighborhood,38.83015924201557,20.704526051932568,Άγιος Μηνάς
530e66b1498ec8d99dc23ec9,Kafenia,38.830267,20.70432,"Καφενείον ""Ο Καλογιάννος"""
57248d9b498e434551478582,Jewelry,38.833257,20.707212,Ostria workshop
4fd8fae9d065f365d67e1051,Jewelry,38.8335874,20.7073527,Folli Follie Store
5026a06ce4b0dfdf2539aae0,Women's Store,38.83340072631836,20.70753288269043,D Collection
598ef5fd826444188d2c8f31,Supermarket,38.828003,20.704025,My Market
4ea1bebc7ee52a35dc986911,Nightlife,38.83022564875863,20.70517746361696,Η Ψειρα
51500faae4b0fc616caaf6c7,Desserts,38.831314366996544,20.70716841270405,Tulip
55a3625c498e94f008172bb6,Donuts,38.83095253539678,20.70621390286068,Nanou Donuts
4fdf59d5c5931dd6ce7e22d4,Mobile Phones,38.831053019994236,20.7064438786332,Vodafone
512895d9e4b08ef05c3c2c64,Neighborhood,38.83369933042621,20.708152024244317,Κεντρική Αγορά
4e7f73e3722ebed1d1bceec6,Greek,38.832555,20.709846,Yupo Yupo
55299fc7498eaba11d71779e,Mediterranean,38.833702,20.708597,NISSI Mediterranean Kuzina
57bc5d54498e6e65961e8a22,Garden,38.831917,20.708382,Via dei Fiori
57b94946498ee5b32be32c11,Boat Rental,38.831018,20.71188,Sunny Sailing
576264da498e610d0f45595e,Coffee Shop,38.83262762243202,20.709943765753216,Mikel Coffee Company
5b6b2777f193c0002c9daa2b,Cocktail,38.833694,20.708733,Kookouvaya
53dc615e498efb3904886e02,Bridge,38.835606,20.709684,Lefkas bridge (Πλωτή Γέφυρα Λευκάδας)
4db6f90d4b226b343dbfa027,Fast Food,38.83385294877389,20.708628720203254,Corner
50b25717e4b03ca4f5ca9eb9,Mobile Phones,38.83109239166365,20.706369930011636,Internet Specialist Spot@Vodafone Ir.Politexneiou 24 Lefkada
59babf21da5ede2141cb7e2b,Apparel,38.833649,20.707912,Blueskin Chionis
52749ced11d2b1d2cfbfbea4,Mobile Phones,38.83098602294922,20.70634651184082,Germanos Lefkadas
4f7d4bf1e4b07071b55a5fbe,Nail Salon,38.83098837460601,20.70661549532501,Magic Nails ( Tania Soldatou)
4e3c74bfb0fb875af854f5bb,Apparel,38.834284,20.709089,Janthi
503bb249e4b078a4e8748fd6,Museum,38.833535959184545,20.70781445332986,"Phonograph, Radio and Folk Tradition Museum (Μουσείο Φωνογράφου, Ραδιοφωνίας & Λαϊκής Παράδοσης)"
508fa2eae4b03b80135a4b91,Veterinarians,38.831124074858735,20.7066445962334,Κτηνιατρική Φροντίδα
4e48320ce4cd9d94fb39bd89,Church,38.831955509378375,20.708301603115167,Άγιος Νικόλαος
51f55332498e57d6478e1a44,Church,38.83288305395749,20.70841393277718,Αgia Κyriaki (Αγία Κυριακή)
52125d7511d25c85a1489a94,Snacks,38.831548,20.70768,Πέτρος
4e483fa1483b03d090f88fce,Snacks,38.83371559866944,20.70792384782602,La Strada
5a3d36e49deb7d432feb3b5c,Salon / Barbershop,38.834236,20.707548,M Hair & Nail Bar
55607917498ea6a5da09da2d,Wine Bar,38.834437520850216,20.708683398971324,Mavros Lagos
4e3c3962d164b529119c3a9e,Greek,38.832563874012166,20.709962751061727,Γύρο Γύρο
53526550498e79f744875573,Gastropub,38.83385146907155,20.70850123563404,Το Πεντοφαναρο - ουζερί
59b7ab96f00a705ba4d82e9c,Greek,38.833942,20.708754,Thermaikos
4ca8a99544a8224b10b71940,Greek,38.83348642127558,20.707034548473327,Lighthouse Garden
538b4708498ed1082716c236,Greek,38.833597,20.707327,Ey Zhn
4e4ebc9845ddff0031b5ea5b,Desserts,38.83354363143643,20.707331923519924,One Red Dot
4f889f0ee4b039b1445c5ee5,Bar,38.834286655719076,20.70765942644065,Havana
4c4898e6417b20a1c683e1a9,Greek,38.83215798826715,20.709161318189622,Πάει Καιρός
539484f1498e932c3f19d726,Plaza,38.83349,20.706093,Marka Square (Πλατεία Μαρκά)
584d47cc13c2232ee667e3db,Ouzeries,38.832336,20.70708,ΑΝΤΙΒΑΡΟ Ουζερί - Μεζεδοπωλείο
4fcc8cf1e4b05a5ebcec1176,Greek,38.83371830642644,20.711114504056024,Κυμα
5035e3f4e4b0e3f1e5c1e073,Betting Shop,38.83274885976013,20.7064874513364,Πρακτορείο ΟΠΑΠ Λιόλιος
502ac3f0e4b050baad6187e0,Greek,38.8343252031073,20.708836792518856,Μαϊστράλι
517311b6e4b05b642bbb7845,Bar,38.833934138553765,20.70852451639693,Karamela Cafe
4e3141871495f249f7696bad,Café,38.83386560802106,20.708743581813646,Casbah
5b68b12a237dee00386d48a0,Cocktail,38.834206,20.70904,Clab
5723e437498ee138bc857c1a,Cocktail,38.8343,20.709068,Garage Bar
4e18bb7c14957dc705dabb58,Food,38.83064363341654,20.711556839578815,Cafe Zorbas
4c2ee4ae7cc0c9b6ece6ea9a,Harbor / Marina,38.8323006617541,20.709528284162207,Lefkas marina (Μαρίνα Λευκάδας)
53752637498ebf274229d8a9,Greek,38.83394422024587,20.71128328996022,Sol & Fa
5099716be4b08a05096d0496,Bar,38.832778,20.706781,Νούφαρο
4db1c2076e81a2637ef30a95,Creperie,38.83418844632606,20.70889052058296,Το Πέτρινο
4e99e215dab4d1d4abddcc54,Restaurant,38.83357829591477,20.707371426293562,Ευ Ζην
4c5890b3ec2520a197f74c12,Ouzeries,38.833914321102476,20.70864900801813,Πεντοφάναρο
4f2df0f7e4b007725b048f12,Cocktail,38.83437663132992,20.709150860859488,Baccara Bar
51750611e4b07d59de0eaaf4,Yogurt,38.83389468313654,20.70842817285549,chillbox frozen yogurt
503bd76ae4b0ef4fd384c7d2,Plaza,38.833904896897245,20.708665582203057,Πλατεία Εθνικής Αντίστασης
538cf631498ec8010f2ee498,Plaza,38.83033525695281,20.703798530708113,Piazza San Minas
521740bb11d2210d4914e69c,Neighborhood,38.83068127645162,20.700422837971814,Νεάπολη
4c28c909ce3fc92855ae6d88,Hotel,38.830603263503995,20.7098576431676,Ianos Hotel
4f8828e8e4b056350e36dda3,Café,38.829483483693295,20.703865221527458,La Piazza
5131d009e4b04248300d3b09,Driving School,38.83123,20.70648,Lazaris Driving School (Σχολή Οδηγών Γ. Λάζαρης)
5006c3c6e4b086c13eb0e2f6,Gas Station,38.826546890788585,20.7027276202639,Θεριανος
52097c7411d295a410214d3c,Beach,38.831673,20.708418,La Moutel
51bec409498e2ac50764fa7a,Hotel,38.82719039916992,20.700475692749023,Artemis studios
4cb70f4a56fca1cd2eb25a18,Café,38.834025943343576,20.708697174777345,Jorello
4e53fe5ad1641f4f818d8d5b,Greek,38.832037938267256,20.708965463941375,Burano
534da1fe498e79e4b21cb70e,Café,38.833015050743505,20.70686090421285,CMYK Art Cafe
4f8bfe67e4b076717d1e478c,Café,38.83060841281874,20.71197733098504,Remezzo Cafe Marina Leukadas
4c266017905a0f47b5306360,Café,38.83391023526137,20.70857455387372,Indigo
5945a9395f68b9085594fa68,Wine Bar,38.834354,20.709166,Boca Lupo
5076f169e4b02e0aecc726a2,Park,38.83330080314752,20.706245463322887,Markas (Μαρκάς)
4f96b248e4b03fde927681b1,Café,38.82907732252808,20.701243133220625,Piccolo
4ff4912ee4b04f7676c47bc1,Theater,38.83370701358004,20.707005447555563,Κηποθεατρο
558993ac498e41a15296cabc,Café,38.833829,20.711116,Kuma
53d7839c498e7f96582c5a6d,Wine Bar,38.833014442336065,20.7064350697086,passa tempo
5005d368e4b0029cc2ac144e,Yogurt,38.83433720921104,20.70913425653861,Lefko fresh yogurt bar
54566345498e366a9166d3ce,Café,38.833898636003006,20.711237847872066,Blow Coffee Bar
4c6328d258810f474b0f091e,Bar,38.83290461774225,20.71081855049217,Pirates
4e5b57e3e4cd875e8ec62d1b,Harbor / Marina,38.833926242706454,20.708873727893902,Lefkada Port (Λιμάνι Λευκάδας)
4bb09b2bf964a520034f3ce3,Seafood,38.83490933360843,20.711630326474953,Margarita
59e9077861e53b0ea57f37c7,Irish,38.833996,20.711658,Conroy's Irish Pub
59561652f4b5252a67f89554,Plaza,38.83448446674273,20.711776614189148,Πλατεία Ηρώων
51b987da498e55622c4a87bc,Convenience Store,38.8345074980849,20.710352057677273,ταολ super market
595bfb5aa9fe12131dd38022,Plaza,38.83531183874759,20.710896849632263,Πλατεία Άγγελου Σικελιανού
5958baca65211f66de5efbb8,Plaza,38.8352700525133,20.70971667766571,Πλατεία Τζεβελέκη
52080c6c11d2118d4891eb55,Cocktail,38.83466430170192,20.711551019373523,Ponos @ Lefkada
551204e9498ecc0e674fb14a,Park,38.834818759619836,20.710537433624268,Dimotikos Kipos (Δημοτικος Κηπος)
578fd964498e057eb2ebbbf5,Rental Car,38.834206,20.710756,Green Motion
595f668ef427de4acf7bddda,Optical,38.8323,20.706287,Mati Mati
503c6c6ce4b0eba56e61cc76,Government,38.83531624389047,20.709601252168685,ΔΟΥ Λευκάδας
533933f0498e1c57f33f867c,Smoke Shop,38.835038,20.70939,Tobacco Shop
55a15a90498e3ac2447d652c,Hotel,38.83205032348633,20.70853042602539,Babis Apartments
523dde5511d218da55d85d45,Lake,38.83555839829473,20.708448853919176,Ivari
5025814ee4b0a2be7fbcbcfb,Park,38.83542844649692,20.71063724748816,Πάρκο Ποιητών
53b2ab6b498e1ac3c13e9719,Greek,38.83454132080078,20.709247589111328,kato vrisi
520585ca11d2c03193ebbb64,Hotel,38.83477885227199,20.709385904937918,Pyrofani Hotel
4ff75fdbe4b08a4c72a0c7e0,Cocktail,38.834881025768176,20.71161953932836,Taratsa Open
5269559611d20ce9be01a077,Rental Car,38.834753,20.710421,Avis Rent a Car
4f85793ae4b0a7ed059b732c,Greek,38.83474581220742,20.709493793176758,La vinaria
502582b4e4b0f736ecd4bf4d,Sculpture,38.834653,20.710934,Koisumi Yakumo Statue
53768eee498e53b474947b91,Bar,38.834483700150855,20.709231032063602,Joy
4d64ec04601d88bf1f57bebb,Hotel,38.83449282408381,20.711116790771484,Ionion Star Hotel
4c5b4a312815c9282c18af67,Café,38.83542045042052,20.70968972531259,Karma
4e416ccae4cd432464371e9d,Cupcakes,38.83450330192117,20.7090890750338,Σταυρακας
5b599247f2554e002c4b644d,Breakfast,38.83447610940069,20.711111426353455,Alefkandra Restaurant & Bar
53348502498e40821397f968,Bridge,38.835806,20.710565,Il Ponte
5340bbdf498e32b41fa1a77f,Bar,38.83453023902074,20.71031713648054,Barbarossa Pub
5311d6ce498e968b9cf32774,Tattoo,38.83388662995531,20.708681661558128,KINKY BEEZ HOUSE OF ART TATTOO
4e1b5354b0fb59954d3faab3,Ice Cream,38.83480674971509,20.709393114410886,Gelatopolis Stavrakas
5b59933ad4cc980039a2d620,Pool,38.83447610940069,20.711089968681335,Ionion Star Hotel Pool
4bd1a1355e0cce7294bea184,Hotel,38.83530859296155,20.709980373327507,Hotel Nirikos
4defc1ae45dd29e268a6e951,Hotel,38.83505701277244,20.710212125722084,Hotel Lefkas
502406ade4b00ac2d892a886,Tavernas,38.83455955813725,20.70951394923269,Ταβερνα Ευτυχια
5956167e1fa763146a3f7e8b,Plaza,38.83532855323443,20.710929036140442,Πλατεία Παραλίας
4e9dfbd5b803b7506dd68621,Hotel,38.83477240346396,20.70940918571778,Santa Mavra Hotel
54479316498e182adf417aa6,B & B,38.835427883481096,20.709711835896623,Boschetto hotel
59371e7acab4107377a1ce3f,Café,38.83508,20.710175,"V3 Cafe Bistro (Veni, Vidi, Vici)"
5124c1c7e4b00ecf9397b2f0,Yoga Studio,38.830412,20.711302,Gym
59b9735635811b55850bea1a,Boutique,38.833797,20.708138,Frou Frou Boutique
4c5a96bcb05c1b8d3a84d8b1,Café,38.835225531015844,20.709615528520626,Boschetto
50159563e4b0befd13d36e19,Tavernas,38.83416071667835,20.709025052907137,Ταβέρνα Επτάνησα
593325e24b78c519c0a4d36a,Bar,38.834164,20.709078,Blanco
59949d8abe57630244c6ff9d,Gift Shop,38.83339,20.707544,Χειρο_ποιείν
5b65ca7e6bdee6002ce3a482,Italian,38.835569,20.707784,Vecchio Casa
4e19ec97a8097d08b245348f,Italian,38.83556849846288,20.707206794312448,Gustoso
4e4c2789d22d10a6c5c7b86d,Gourmet,38.83527755737305,20.709646224975586,Glykes Anamnhseis
542c409c498e1db13e783602,Arts & Crafts,38.835203,20.709487,MURANO Artistic Glass Shop
4fb10267e4b047f11df70ac2,Mediterranean,38.83485081780878,20.709321882795596,To Spitiko / το σπιτικό
59a933aed1a402443cc78c19,Bar,38.8338,20.708739,Rock N' Roll Café
501d21bfe4b03b87a1dc6fda,Snacks,38.83548318628501,20.709361394267713,Kantina
4c61c10969a1c9b64d0c37a4,Café,38.835491897241184,20.70866294767114,Sea to See
52c1e993498e7bc34117ee2d,Rental Car,38.83538339083057,20.70844303372877,Budget Rent a Car | Levkas
593bcb232ebb34774fc36728,Café,38.835445,20.708946,Casa Azul
50046f09e4b01f40cf49bd77,Spa,38.83477040893737,20.709217119297264,Happy Feet
5b65caf8a8eb60002c5a619f,Italian,38.835569,20.707863,Vecchia Casa
4e1cae34a80980ebf5a45bcb,Italian,38.835429403802365,20.706499272730728,Old Navy
502e9067e4b06e61e1791c91,Greek,38.833711,20.706651,Βιβλιοθήκη
556ebb5c498e9d2f55be9965,Juice Bar,38.835433257599284,20.709397545327793,CRUSH juice bars
53c67c41498e6fcafc72cd6c,Greek,38.834625244140625,20.709341049194336,Η Κάτω Βρύση
5025cc34e4b0aa1674c616a6,Housing Development,38.833574,20.708753,ΠAΤΡΑΙ Hotel
55b2c98d498eca56ac753559,Nightclub,38.83548223964609,20.70910312709578,Pure Club
55703c5e498e24b194d2e810,Student Center,38.83086834673059,20.706650416415158,Morfosi - Κέντρο Εκπαίδευσης
58f2aa2c588e360d80a6de5e,Café,38.835421793118655,20.709215514517556,Lagoon
5b5859b0840fc2002cdce219,Greek,38.835565,20.707844,Santa Maura Grill
523f15af11d2b3a6caa91a51,Well,38.835048678164306,20.70951394923269,Μούτελ'
57ba2583cd10ab0050d7b485,Pedestrian Street/Plaza,38.835775,20.707241,Δυτική παραλία
4e1b45ad7d8b8db6125aa727,Restaurant,38.83515575879603,20.708711071915815,Θυμάρι
5022ed9ae4b02790d720f024,Café,38.83550508391139,20.708414156907384,Χάρτες
4df4c313fa76abc3d871390c,Ice Cream,38.83551980660716,20.707087953083143,Παγωτομανία
502642d0e4b081bd6d000d5e,Other Outdoors,38.835592,20.708504,Πόντες
51b62be8498e11527025db9f,Café,38.83355808508385,20.707255715471188,"кафешка-хуешка, о.Лефкада"
4e3c49f862e19d61095ec214,Greek,38.835601516867946,20.70757000548499,Στου Ποντε
50811eb1e4b0ac00f4a0acda,Bridge,38.8354096232134,20.70853033658772,Δίαυλος
5782a129cd10e8816cd7114b,Greek,38.83553242000914,20.706947245722134,Ηλιοβασίλεμα
51dd928e498e6b840686dea0,Indoor Play Area,38.835293383410274,20.706731898962765,Dolce Trambala
4e0e5a01fa76d62f44483b76,Café,38.83546978844802,20.708530658268714,Δίαυλος
5b75c57f2be425002ce0f1f6,Modern Greek Restaurants,38.835545,20.707361,Βεράγκι
4e5610ac18a8edeb70dbb30d,Bridge,38.843437468265094,20.716987103219996,Γέφυρα Λευκάδας
503a26c0e4b086de88593f18,Castle,38.84461388844586,20.720290280878544,Κάστρο Αγίας Μαύρας
501e09a9e4b09ed2451aac07,Beach,38.847504403905376,20.72094866618179,Αμμογλωσσα
5068288ee4b0759e8b36b4f6,Beach,38.8467050711189,20.717900879859116,Κάστρο
55a0ee1b498e1d7b34dc1022,Scenic Lookout,38.84463119506836,20.719921112060547,Agia Mavra (Αγία Μαύρα)
4c555272fd2ea593e7b7862b,Beach,38.846647260144294,20.71729557551239,παραλία ΤΑΟΛ
4c62fbaf79d1e21e1476d715,Café,38.835555,20.708975,Sola Luna
5278cec611d2363ca110612a,Office,38.846501309245724,20.718863010406494,Τερνα Ενεργειακή - Εργοτάξιο Διαύλου Λευκάδας
59b64042ee71203bd8ac7bda,Castle,38.84759,20.73972,Kastro Griva
5130c0a0e4b06aa09709f0f3,Factory,38.84676247323317,20.717347957607497,TAOL Factory
4fdbb315e4b06844c44cdb5a,Beer Bar,38.83961486816406,20.71651268005371,Panoutsos
524853a7498e5a2f80b71458,Jewelry,38.835221,20.709669,Millefiori
577c17c4498e675d2eedb63c,Photo Studio,38.836389,20.70907,Studio Fotos
50617476e4b090d2d125c646,Automotive,38.8351587741105,20.7101890921011,Avis Rent A Car
4f491bebe4b0e445069095d5,Snacks,38.83518251570496,20.70955469060204,Το Νοστιμο
5248543a498ed8e90837323d,Photography Lab,38.835168,20.709555,Φαλκώνης
4f86a0fae4b0718e0c3f6f96,Arts & Crafts,38.83474090662527,20.708862087509047,Υδρία
5218b97f11d2effcb61369eb,B & B,38.834791,20.70892,Filion Hotel
55d1aeca498e52a1ea2255f0,Nudist Beach,38.853127,20.735462,Αλμυρίκια
51d584a0498eb4644c623768,Surf Spot,38.853346,20.736253,Agios Toshakos Kite Centre
559c43fb498e4d7d725f192a,Souvlaki,38.83557149234325,20.707954137834786,Meat Place
57892b3c498ee6c1946ad843,Greek,38.835418,20.707926,Stín Ponte
4e662bd718a8ce02fe72e27e,Greek,38.83475891383056,20.709013412520832,Η Κάτω Βρύση
50199906e4b097b274ef9d0b,Jewelry,38.835499,20.706851,Froggy's Creations
50547fd1e4b017bb260b6dd8,Residential,38.83546344529752,20.708623459644198,evagelia studios
4f3df631e4b0fbbbd7161c7e,Concert Hall,38.83472994020583,20.708518696206166,Φιλαρμονική Εταιρία Λευκάδας
